Timestamp,accelX(g),accelY(g),accelZ(g),accelUserX(g),accelUserY(g),accelUserZ(g),gyroX(rad/s),gyroY(rad/s),gyroZ(rad/s),Roll(rads),Pitch(rads),Yaw(rads),Lat,Long,Speed(m/s),TrueHeading,Alt(m), HorizontalAccuracy(m), VerticalAccuracy(m),ActivityType,ActivityConfidence,Pressure(kilopascals),RelativeAltitude(meters),magX(µT),magY(µT),magZ(µT),calMagX,calMagY,calMagZ
24-May-2019 18:11:23.018,-0.0005, 0.0169,-1.0066,-0.0106,-0.0119,-0.0177,-0.0705, 0.0773, 0.0009, 0.0024,-0.0239,-2.2836,41.662526,-91.537992, 0.0000, 88.1709, 197.292175, 5.0, 4.0,Automotive,High, 98.6373,-10.2496, 18.4652, 20.2407,-279.8046, 0.0000, 0.0000, 0.0000
24-May-2019 18:11:23.056,-0.0072, 0.0160,-1.0361,-0.0056,-0.0064, 0.0031,-0.0054, 0.0350,-0.0128, 0.0023,-0.0233,-2.2835,41.662526,-91.537992, 0.0000, 88.1709, 197.292175, 5.0, 4.0,Automotive,High, 98.6373,-10.2496, 16.6897, 21.3060,-278.4545, 0.0000, 0.0000, 0.0000
24-May-2019 18:11:23.097,-0.0039, 0.0139,-1.0067,-0.0121,-0.0148,-0.0193,-0.0246, 0.0382,-0.0043, 0.0024,-0.0231,-2.2834,41.662526,-91.537992, 0.0000, 88.1709, 197.282074, 5.0, 4.0,Automotive,High, 98.6373,-10.2496, 15.6244, 18.8203,-280.1421, 0.0000, 0.0000, 0.0000
24-May-2019 18:11:23.138,-0.0088, 0.0123,-1.0182,-0.0045,-0.0037,-0.0165,-0.0182, 0.0265,-0.0139, 0.0025,-0.0229,-2.2833,41.662526,-91.537992, 0.0000, 88.1709, 197.282074, 5.0, 4.0,Automotive,High, 98.6373,-10.2496, 16.8672, 20.7733,-278.6232, 0.0000, 0.0000, 0.0000
24-May-2019 18:11:23.171,-0.0064, 0.0195,-1.0093,-0.0050,-0.0073,-0.0105,-0.0150, 0.0350,-0.0086, 0.0021,-0.0224,-2.2832,41.662526,-91.537992, 0.0000, 88.1709, 197.282074, 5.0, 4.0,Automotive,High, 98.6373,-10.2496, 16.6897, 19.8856,-278.7920, 0.0000, 0.0000, 0.0000
24-May-2019 18:11:23.212,-0.0032, 0.0130,-1.0071, 0.0092,-0.0030,-0.0087,-0.0171, 0.0286,-0.0107, 0.0024,-0.0220,-2.2832,41.662526,-91.537992, 0.0000, 88.1709, 197.282074, 5.0, 4.0,Automotive,High, 98.6373,-10.2496, 16.3346, 20.5958,-278.7920, 0.0000, 0.0000, 0.0000
24-May-2019 18:11:23.258,-0.0079, 0.0174,-1.0158, 0.0004,-0.0027,-0.0112,-0.0171, 0.0360,-0.0075, 0.0022,-0.0216,-2.2831,41.662526,-91.537992, 0.0000, 88.1709, 197.282074, 5.0, 4.0,Automotive,High, 98.6373,-10.2496, 17.0448, 19.1754,-279.8046, 0.0000, 0.0000, 0.0000
24-May-2019 18:11:23.290,-0.0077, 0.0168,-1.0086, 0.0019,-0.0008,-0.0169,-0.0118, 0.0276,-0.0128, 0.0024,-0.0214,-2.2831,41.662526,-91.537992, 0.0000, 88.1709, 197.282074, 5.0, 4.0,Automotive,High, 98.6373,-10.2496, 18.1101, 21.3060,-279.1295, 0.0000, 0.0000, 0.0000
24-May-2019 18:11:23.328,-0.0092, 0.0147,-1.0209, 0.0046,-0.0035,-0.0188,-0.0182, 0.0350,-0.0075, 0.0026,-0.0208,-2.2830,41.662526,-91.537992, 0.0000, 88.1709, 197.282074, 5.0, 4.0,Automotive,High, 98.6373,-10.2496, 15.4468, 20.7733,-278.9608, 0.0000, 0.0000, 0.0000
24-May-2019 18:11:23.366,-0.0022, 0.0157,-1.0122, 0.0029,-0.0055,-0.0155,-0.0128, 0.0265,-0.0107, 0.0025,-0.0202,-2.2829,41.662526,-91.537992, 0.0000, 88.1709, 197.282074, 5.0, 4.0,Automotive,High, 98.6373,-10.2496, 17.0448, 19.8856,-278.4545, 0.0000, 0.0000, 0.0000
24-May-2019 18:11:23.405,-0.0007, 0.0136,-1.0143, 0.0050,-0.0050,-0.0124,-0.0160, 0.0318,-0.0086, 0.0022,-0.0199,-2.2828,41.662526,-91.537992, 0.0000, 88.1709, 197.282074, 5.0, 4.0,Automotive,High, 98.6373,-10.2496, 17.2223, 21.1284,-280.3109, 0.0000, 0.0000, 0.0000
24-May-2019 18:11:23.449,-0.0022, 0.0175,-1.0140, 0.0067,-0.0051,-0.0134,-0.0150, 0.0297,-0.0107, 0.0023,-0.0195,-2.2827,41.662526,-91.537992, 0.0000, 88.1709, 197.282074, 5.0, 4.0,Automotive,High, 98.6373,-10.2496, 17.9325, 20.7733,-280.6484, 0.0000, 0.0000, 0.0000
24-May-2019 18:11:23.485,-0.0022, 0.0166,-1.0149, 0.0097,-0.0031,-0.0159,-0.0171, 0.0329,-0.0096, 0.0025,-0.0193,-2.2826,41.662526,-91.537992, 0.0000, 88.1709, 197.282074, 5.0, 4.0,Automotive,High, 98.6373,-10.2496, 17.3999, 20.5958,-278.7920, 0.0000, 0.0000, 0.0000
24-May-2019 18:11:23.530, 0.0025, 0.0196,-1.0171, 0.0070,-0.0011,-0.0131,-0.0150, 0.0286,-0.0118, 0.0024,-0.0191,-2.2826,41.662526,-91.537992, 0.0000, 88.1709, 197.282074, 5.0, 4.0,Automotive,High, 98.6373,-10.2496, 17.0448, 19.1754,-279.4670, 0.0000, 0.0000, 0.0000
24-May-2019 18:11:23.558, 0.0030, 0.0206,-1.0143, 0.0087, 0.0005,-0.0185,-0.0160, 0.0318,-0.0086, 0.0026,-0.0191,-2.2825,41.662526,-91.537992, 0.0000, 88.1709, 197.282074, 5.0, 4.0,Automotive,High, 98.6373,-10.2496, 17.0448, 19.1754,-279.4670, 0.0000, 0.0000, 0.0000
24-May-2019 18:11:23.598, 0.0051, 0.0173,-1.0198, 0.0072, 0.0002,-0.0167,-0.0160, 0.0297,-0.0118, 0.0025,-0.0189,-2.2825,41.662526,-91.537992, 0.0000, 88.1709, 197.282074, 5.0, 4.0,Automotive,High, 98.6373,-10.2496, 17.0448, 20.9509,-280.4796, 0.0000, 0.0000, 0.0000
24-May-2019 18:11:23.636, 0.0081, 0.0175,-1.0157, 0.0033,-0.0020,-0.0176,-0.0150, 0.0329,-0.0096, 0.0025,-0.0187,-2.2824,41.662526,-91.537992, 0.0000, 88.1709, 197.282074, 5.0, 4.0,Automotive,High, 98.6373,-10.2496, 16.6897, 21.6611,-279.4670, 0.0000, 0.0000, 0.0000
24-May-2019 18:11:23.679, 0.0096, 0.0168,-1.0150, 0.0064,-0.0020,-0.0188,-0.0150, 0.0297,-0.0096, 0.0024,-0.0185,-2.2823,41.662526,-91.537992, 0.0000, 88.1709, 197.282074, 5.0, 4.0,Automotive,High, 98.6373,-10.2496, 16.8672, 18.9978,-279.9733, 0.0000, 0.0000, 0.0000
24-May-2019 18:11:23.720, 0.0114, 0.0167,-1.0136, 0.0067,-0.0034,-0.0138,-0.0171, 0.0318,-0.0096, 0.0026,-0.0182,-2.2822,41.662526,-91.537992, 0.0000, 88.1709, 197.282074, 5.0, 4.0,Automotive,High, 98.6373,-10.2496, 16.3346, 19.8856,-279.4670, 0.0000, 0.0000, 0.0000
24-May-2019 18:11:23.756, 0.0093, 0.0141,-1.0184, 0.0048, 0.0007,-0.0121,-0.0171, 0.0329,-0.0096, 0.0023,-0.0180,-2.2821,41.662526,-91.537992, 0.0000, 88.1709, 197.282074, 5.0, 4.0,Automotive,High, 98.6371,-10.2310, 17.2223, 20.0631,-278.6232, 0.0000, 0.0000, 0.0000
24-May-2019 18:11:23.792, 0.0112, 0.0163,-1.0177,-0.0087,-0.0051,-0.0142,-0.0182, 0.0318,-0.0086, 0.0023,-0.0180,-2.2821,41.662526,-91.537992, 0.0000, 88.1709, 197.282074, 5.0, 4.0,Automotive,High, 98.6371,-10.2310, 17.7550, 20.2407,-279.1295, 0.0000, 0.0000, 0.0000
24-May-2019 18:11:23.831, 0.0098, 0.0150,-1.0159,-0.0010,-0.0009,-0.0150,-0.0171, 0.0318,-0.0107, 0.0023,-0.0177,-2.2820,41.662526,-91.537992, 0.0000, 88.1709, 197.282074, 5.0, 4.0,Automotive,High, 98.6371,-10.2310, 17.7550, 19.5305,-279.1295, 0.0000, 0.0000, 0.0000
24-May-2019 18:11:23.869, 0.0074, 0.0175,-1.0190,-0.0037,-0.0004,-0.0145,-0.0150, 0.0329,-0.0096, 0.0025,-0.0175,-2.2819,41.662526,-91.537992, 0.0000, 88.1709, 197.282074, 5.0, 4.0,Automotive,High, 98.6371,-10.2310, 17.0448, 19.1754,-279.1295, 0.0000, 0.0000, 0.0000
24-May-2019 18:11:23.908, 0.0119, 0.0189,-1.0152,-0.0026,-0.0018,-0.0142,-0.0150, 0.0329,-0.0096, 0.0022,-0.0173,-2.2819,41.662526,-91.537992, 0.0000, 88.1709, 197.282074, 5.0, 4.0,Automotive,High, 98.6371,-10.2310, 18.2876, 18.9978,-280.6484, 0.0000, 0.0000, 0.0000
24-May-2019 18:11:23.949, 0.0113, 0.0207,-1.0142,-0.0049,-0.0015,-0.0125,-0.0150, 0.0318,-0.0096, 0.0022,-0.0173,-2.2817,41.662526,-91.537992, 0.0000, 88.1709, 197.282074, 5.0, 4.0,Automotive,High, 98.6371,-10.2310, 17.2223, 17.9325,-279.2983, 0.0000, 0.0000, 0.0000
24-May-2019 18:11:23.985, 0.0078, 0.0163,-1.0181,-0.0068,-0.0015,-0.0109,-0.0160, 0.0297,-0.0118, 0.0022,-0.0173,-2.2817,41.662526,-91.537992, 0.0000, 88.1709, 197.282074, 5.0, 4.0,Automotive,High, 98.6371,-10.2310, 16.6897, 20.2407,-279.8046, 0.0000, 0.0000, 0.0000
24-May-2019 18:11:24.027, 0.0066, 0.0151,-1.0149,-0.0093,-0.0018,-0.0134,-0.0160, 0.0308,-0.0107, 0.0025,-0.0171,-2.2816,41.662526,-91.537992, 0.0000, 88.1709, 197.282074, 5.0, 4.0,Automotive,High, 98.6371,-10.2310, 16.8672, 18.6427,-278.9608, 0.0000, 0.0000, 0.0000
24-May-2019 18:11:24.062, 0.0058, 0.0148,-1.0160,-0.0018,-0.0012,-0.0166,-0.0160, 0.0308,-0.0107, 0.0027,-0.0171,-2.2815,41.662526,-91.537992, 0.0000, 88.1709, 197.282074, 5.0, 4.0,Automotive,High, 98.6371,-10.2310, 16.1570, 20.0631,-278.9608, 0.0000, 0.0000, 0.0000
24-May-2019 18:11:24.111, 0.0036, 0.0135,-1.0127,-0.0091,-0.0018,-0.0119,-0.0150, 0.0318,-0.0118, 0.0028,-0.0169,-2.2814,41.662526,-91.537992, 0.0000, 88.1709, 197.259750, 5.0, 4.0,Automotive,High, 98.6371,-10.2310, 17.0448, 19.1754,-279.4670, 0.0000, 0.0000, 0.0000
24-May-2019 18:11:24.140, 0.0014, 0.0149,-1.0116,-0.0102,-0.0042,-0.0143,-0.0150, 0.0318,-0.0118, 0.0025,-0.0167,-2.2814,41.662526,-91.537992, 0.0000, 88.1709, 197.259750, 5.0, 4.0,Automotive,High, 98.6371,-10.2310, 17.5774, 20.4182,-280.3109, 0.0000, 0.0000, 0.0000
24-May-2019 18:11:24.178,-0.0011, 0.0173,-1.0133,-0.0074,-0.0010,-0.0109,-0.0160, 0.0318,-0.0096, 0.0025,-0.0165,-2.2813,41.662526,-91.537992, 0.0000, 88.1709, 197.259750, 5.0, 4.0,Automotive,High, 98.6371,-10.2310, 17.3999, 19.5305,-279.4670, 0.0000, 0.0000, 0.0000
24-May-2019 18:11:24.219,-0.0053, 0.0163,-1.0146,-0.0049, 0.0018,-0.0154,-0.0160, 0.0329,-0.0096, 0.0026,-0.0165,-2.2812,41.662526,-91.537992, 0.0000, 88.1709, 197.259750, 5.0, 4.0,Automotive,High, 98.6371,-10.2310, 16.3346, 19.5305,-279.1295, 0.0000, 0.0000, 0.0000
24-May-2019 18:11:24.256,-0.0077, 0.0159,-1.0122,-0.0037, 0.0036,-0.0156,-0.0139, 0.0329,-0.0118, 0.0027,-0.0166,-2.2811,41.662526,-91.537992, 0.0000, 88.1709, 197.259750, 5.0, 4.0,Automotive,High, 98.6371,-10.2310, 17.7550, 21.3060,-279.4670, 0.0000, 0.0000, 0.0000
24-May-2019 18:11:24.296,-0.0082, 0.0129,-1.0144,-0.0021, 0.0039,-0.0156,-0.0160, 0.0329,-0.0107, 0.0027,-0.0165,-2.2811,41.662526,-91.537992, 0.0000, 88.1709, 197.259750, 5.0, 4.0,Automotive,High, 98.6371,-10.2310, 17.3999, 19.1754,-279.8046, 0.0000, 0.0000, 0.0000
24-May-2019 18:11:24.326,-0.0086, 0.0138,-1.0112,-0.0015, 0.0029,-0.0180,-0.0171, 0.0329,-0.0107, 0.0029,-0.0165,-2.2810,41.662526,-91.537992, 0.0000, 88.1709, 197.259750, 5.0, 4.0,Automotive,High, 98.6371,-10.2310, 16.6897, 19.1754,-279.1295, 0.0000, 0.0000, 0.0000
24-May-2019 18:11:24.366,-0.0082, 0.0158,-1.0096, 0.0064,-0.0006,-0.0141,-0.0139, 0.0318,-0.0107, 0.0028,-0.0163,-2.2809,41.662526,-91.537992, 0.0000, 88.1709, 197.259750, 5.0, 4.0,Automotive,High, 98.6371,-10.2310, 16.6897, 19.1754,-279.1295, 0.0000, 0.0000, 0.0000
24-May-2019 18:11:24.404,-0.0096, 0.0168,-1.0117, 0.0037, 0.0022,-0.0170,-0.0150, 0.0318,-0.0096, 0.0029,-0.0162,-2.2809,41.662526,-91.537992, 0.0000, 88.1709, 197.259750, 5.0, 4.0,Automotive,High, 98.6371,-10.2310, 18.1101, 18.4652,-280.1421, 0.0000, 0.0000, 0.0000
24-May-2019 18:11:24.444,-0.0029, 0.0187,-1.0156, 0.0046,-0.0011,-0.0150,-0.0150, 0.0339,-0.0107, 0.0026,-0.0162,-2.2808,41.662526,-91.537992, 0.0000, 88.1709, 197.259750, 5.0, 4.0,Automotive,High, 98.6371,-10.2310, 18.1101, 19.1754,-276.7669, 0.0000, 0.0000, 0.0000
24-May-2019 18:11:24.483,-0.0017, 0.0182,-1.0166, 0.0059, 0.0007,-0.0147,-0.0150, 0.0329,-0.0107, 0.0026,-0.0161,-2.2807,41.662526,-91.537992, 0.0000, 88.1709, 197.259750, 5.0, 4.0,Automotive,High, 98.6371,-10.2310, 17.9325, 20.4182,-278.2857, 0.0000, 0.0000, 0.0000
24-May-2019 18:11:24.521,-0.0044, 0.0180,-1.0154, 0.0075, 0.0012,-0.0183,-0.0160, 0.0318,-0.0096, 0.0024,-0.0161,-2.2806,41.662526,-91.537992, 0.0000, 88.1709, 197.259750, 5.0, 4.0,Automotive,High, 98.6371,-10.2310, 17.2223, 19.7080,-279.2983, 0.0000, 0.0000, 0.0000
24-May-2019 18:11:24.562, 0.0027, 0.0174,-1.0174, 0.0082, 0.0000,-0.0180,-0.0160, 0.0339,-0.0107, 0.0023,-0.0161,-2.2806,41.662526,-91.537992, 0.0000, 88.1709, 197.259750, 5.0, 4.0,Automotive,High, 98.6371,-10.2310, 16.6897, 20.2407,-281.1547, 0.0000, 0.0000, 0.0000
24-May-2019 18:11:24.596, 0.0052, 0.0182,-1.0171, 0.0088, 0.0004,-0.0160,-0.0150, 0.0297,-0.0118, 0.0023,-0.0161,-2.2805,41.662526,-91.537992, 0.0000, 88.1709, 197.259750, 5.0, 4.0,Automotive,High, 98.6371,-10.2310, 18.1101, 20.2407,-279.1295, 0.0000, 0.0000, 0.0000
24-May-2019 18:11:24.639, 0.0058, 0.0211,-1.0140, 0.0097,-0.0023,-0.0179,-0.0139, 0.0318,-0.0096, 0.0023,-0.0161,-2.2804,41.662526,-91.537992, 0.0000, 88.1709, 197.259750, 5.0, 4.0,Automotive,High, 98.6371,-10.2310, 17.5774, 19.3529,-279.2983, 0.0000, 0.0000, 0.0000
24-May-2019 18:11:24.682, 0.0047, 0.0165,-1.0184, 0.0091, 0.0018,-0.0132,-0.0160, 0.0318,-0.0107, 0.0023,-0.0161,-2.2803,41.662526,-91.537992, 0.0000, 88.1709, 197.259750, 5.0, 4.0,Automotive,High, 98.6371,-10.2310, 16.3346, 20.5958,-279.8046, 0.0000, 0.0000, 0.0000
24-May-2019 18:11:24.715, 0.0074, 0.0158,-1.0169, 0.0070, 0.0009,-0.0141,-0.0139, 0.0339,-0.0118, 0.0023,-0.0161,-2.2803,41.662526,-91.537992, 0.0000, 88.1709, 197.259750, 5.0, 4.0,Automotive,High, 98.6371,-10.2310, 16.5121, 20.0631,-279.6358, 0.0000, 0.0000, 0.0000
24-May-2019 18:11:24.753, 0.0085, 0.0163,-1.0166,-0.0095,-0.0017,-0.0111,-0.0171, 0.0329,-0.0118, 0.0022,-0.0160,-2.2802,41.662526,-91.537992, 0.0000, 88.1709, 197.259750, 5.0, 4.0,Automotive,High, 98.6371,-10.2310, 15.8019, 18.9978,-278.9608, 0.0000, 0.0000, 0.0000
24-May-2019 18:11:24.802, 0.0103, 0.0153,-1.0174, 0.0036,-0.0004,-0.0158,-0.0150, 0.0329,-0.0096, 0.0021,-0.0161,-2.2801,41.662526,-91.537992, 0.0000, 88.1709, 197.259750, 5.0, 4.0,Automotive,High, 98.6371,-10.2310, 18.4652, 18.4652,-279.1295, 0.0000, 0.0000, 0.0000
24-May-2019 18:11:24.830, 0.0105, 0.0150,-1.0157,-0.0084, 0.0003,-0.0121,-0.0150, 0.0339,-0.0118, 0.0021,-0.0160,-2.2801,41.662526,-91.537992, 0.0000, 88.1709, 197.259750, 5.0, 4.0,Automotive,High, 98.6371,-10.2310, 18.4652, 18.8203,-278.4545, 0.0000, 0.0000, 0.0000
24-May-2019 18:11:24.870, 0.0134, 0.0172,-1.0157,-0.0014,-0.0012,-0.0163,-0.0139, 0.0329,-0.0118, 0.0019,-0.0160,-2.2800,41.662526,-91.537992, 0.0000, 88.1709, 197.259750, 5.0, 4.0,Automotive,High, 98.6371,-10.2310, 16.8672, 20.4182,-277.6107, 0.0000, 0.0000, 0.0000
24-May-2019 18:11:24.909, 0.0122, 0.0179,-1.0120,-0.0018, 0.0002,-0.0132,-0.0171, 0.0318,-0.0118, 0.0021,-0.0160,-2.2800,41.662526,-91.537992, 0.0000, 88.1709, 197.259750, 5.0, 4.0,Automotive,High, 98.6371,-10.2310, 16.3346, 20.5958,-279.8046, 0.0000, 0.0000, 0.0000
24-May-2019 18:11:24.947, 0.0074, 0.0171,-1.0147,-0.0028,-0.0000,-0.0109,-0.0160, 0.0339,-0.0107, 0.0022,-0.0160,-2.2799,41.662526,-91.537992, 0.0000, 88.1709, 197.259750, 5.0, 4.0,Automotive,High, 98.6371,-10.2310, 16.6897, 18.1101,-279.1295, 0.0000, 0.0000, 0.0000
24-May-2019 18:11:24.985, 0.0087, 0.0177,-1.0134,-0.0063,-0.0014,-0.0160,-0.0139, 0.0308,-0.0086, 0.0023,-0.0160,-2.2798,41.662526,-91.537992, 0.0000, 88.1709, 197.259750, 5.0, 4.0,Automotive,High, 98.6371,-10.2310, 16.1570, 20.0631,-278.9608, 0.0000, 0.0000, 0.0000
24-May-2019 18:11:25.024, 0.0059, 0.0160,-1.0151,-0.0031, 0.0017,-0.0158,-0.0139, 0.0308,-0.0086, 0.0023,-0.0161,-2.2797,41.662526,-91.537992, 0.0000, 88.1709, 197.259750, 5.0, 4.0,Automotive,High, 98.6371,-10.2310, 16.3346, 19.8856,-279.1295, 0.0000, 0.0000, 0.0000
24-May-2019 18:11:25.066, 0.0026, 0.0151,-1.0165,-0.0123, 0.0000,-0.0113,-0.0160, 0.0329,-0.0107, 0.0023,-0.0160,-2.2796,41.662526,-91.537992, 0.0000, 88.1709, 197.259750, 5.0, 4.0,Automotive,High, 98.6371,-10.2310, 17.5774, 20.7733,-279.9733, 0.0000, 0.0000, 0.0000
24-May-2019 18:11:25.104, 0.0016, 0.0139,-1.0147,-0.0099, 0.0011,-0.0140,-0.0160, 0.0318,-0.0107, 0.0023,-0.0160,-2.2795,41.662526,-91.537992, 0.0000, 88.1709, 197.337509, 5.0, 4.0,Automotive,High, 98.6371,-10.2310, 17.7550, 19.1754,-279.1295, 0.0000, 0.0000, 0.0000
24-May-2019 18:11:25.140,-0.0006, 0.0167,-1.0108,-0.0081,-0.0016,-0.0131,-0.0160, 0.0318,-0.0107, 0.0023,-0.0159,-2.2794,41.662526,-91.537992, 0.0000, 88.1709, 197.337509, 5.0, 4.0,Automotive,High, 98.6371,-10.2310, 17.2223, 19.7080,-278.2857, 0.0000, 0.0000, 0.0000
24-May-2019 18:11:25.179,-0.0049, 0.0165,-1.0132,-0.0031, 0.0018,-0.0132,-0.0171, 0.0308,-0.0107, 0.0023,-0.0159,-2.2794,41.662526,-91.537992, 0.0000, 88.1709, 197.337509, 5.0, 4.0,Automotive,High, 98.6371,-10.2310, 18.1101, 19.5305,-279.1295, 0.0000, 0.0000, 0.0000
24-May-2019 18:11:25.217,-0.0059, 0.0162,-1.0148,-0.0031, 0.0051,-0.0128,-0.0160, 0.0308,-0.0096, 0.0024,-0.0160,-2.2793,41.662526,-91.537992, 0.0000, 88.1709, 197.337509, 5.0, 4.0,Automotive,High, 98.6371,-10.2310, 18.2876, 19.3529,-279.6358, 0.0000, 0.0000, 0.0000
24-May-2019 18:11:25.256,-0.0058, 0.0146,-1.0138,-0.0020, 0.0025,-0.0177,-0.0139, 0.0318,-0.0096, 0.0024,-0.0160,-2.2792,41.662526,-91.537992, 0.0000, 88.1709, 197.337509, 5.0, 4.0,Automotive,High, 98.6371,-10.2310, 18.8203, 20.2407,-279.4670, 0.0000, 0.0000, 0.0000
24-May-2019 18:11:25.299,-0.0055, 0.0155,-1.0150,-0.0078,-0.0005,-0.0151,-0.0160, 0.0308,-0.0107, 0.0023,-0.0160,-2.2791,41.662526,-91.537992, 0.0000, 88.1709, 197.337509, 5.0, 4.0,Automotive,High, 98.6371,-10.2310, 16.3346, 19.5305,-279.1295, 0.0000, 0.0000, 0.0000
24-May-2019 18:11:25.335,-0.0060, 0.0162,-1.0119, 0.0058, 0.0013,-0.0189,-0.0150, 0.0318,-0.0128, 0.0025,-0.0160,-2.2791,41.662526,-91.537992, 0.0000, 88.1709, 197.337509, 5.0, 4.0,Automotive,High, 98.6371,-10.2310, 16.8672, 20.7733,-278.9608, 0.0000, 0.0000, 0.0000
24-May-2019 18:11:25.376,-0.0031, 0.0177,-1.0134, 0.0039, 0.0005,-0.0188,-0.0150, 0.0318,-0.0096, 0.0025,-0.0159,-2.2790,41.662526,-91.537992, 0.0000, 88.1709, 197.337509, 5.0, 4.0,Automotive,High, 98.6371,-10.2310, 18.8203, 20.5958,-279.4670, 0.0000, 0.0000, 0.0000
24-May-2019 18:11:25.413,-0.0004, 0.0212,-1.0150, 0.0064,-0.0009,-0.0142,-0.0160, 0.0308,-0.0107, 0.0025,-0.0159,-2.2789,41.662526,-91.537992, 0.0000, 88.1709, 197.337509, 5.0, 4.0,Automotive,High, 98.6371,-10.2310, 18.8203, 20.5958,-279.4670, 0.0000, 0.0000, 0.0000
24-May-2019 18:11:25.461,-0.0014, 0.0177,-1.0155, 0.0096,-0.0007,-0.0183,-0.0150, 0.0265,-0.0118, 0.0025,-0.0159,-2.2788,41.662526,-91.537992, 0.0000, 88.1709, 197.337509, 5.0, 4.0,Automotive,High, 98.6371,-10.2310, 16.5121, 19.3529,-278.2857, 0.0000, 0.0000, 0.0000
24-May-2019 18:11:25.491,-0.0007, 0.0159,-1.0192, 0.0061,-0.0000,-0.0166,-0.0150, 0.0318,-0.0118, 0.0026,-0.0159,-2.2788,41.662526,-91.537992, 0.0000, 88.1709, 197.337509, 5.0, 4.0,Automotive,High, 98.6371,-10.2310, 17.2223, 19.7080,-279.2983, 0.0000, 0.0000, 0.0000
24-May-2019 18:11:25.532, 0.0046, 0.0188,-1.0155, 0.0060, 0.0005,-0.0179,-0.0160, 0.0318,-0.0107, 0.0024,-0.0159,-2.2787,41.662526,-91.537992, 0.0000, 88.1709, 197.337509, 5.0, 4.0,Automotive,High, 98.6371,-10.2310, 17.0448, 20.2407,-279.4670, 0.0000, 0.0000, 0.0000
24-May-2019 18:11:25.571, 0.0083, 0.0169,-1.0153, 0.0058, 0.0010,-0.0154,-0.0150, 0.0276,-0.0107, 0.0025,-0.0159,-2.2786,41.662526,-91.537992, 0.0000, 88.1709, 197.337509, 5.0, 4.0,Automotive,High, 98.6371,-10.2310, 17.9325, 20.0631,-279.2983, 0.0000, 0.0000, 0.0000
24-May-2019 18:11:25.607, 0.0071, 0.0158,-1.0186, 0.0084, 0.0015,-0.0105,-0.0150, 0.0286,-0.0118, 0.0025,-0.0160,-2.2786,41.662526,-91.537992, 0.0000, 88.1709, 197.337509, 5.0, 4.0,Automotive,High, 98.6371,-10.2310, 17.5774, 18.9978,-279.2983, 0.0000, 0.0000, 0.0000
24-May-2019 18:11:25.645, 0.0099, 0.0175,-1.0177, 0.0062,-0.0007,-0.0129,-0.0150, 0.0297,-0.0128, 0.0025,-0.0160,-2.2785,41.662526,-91.537992, 0.0000, 88.1709, 197.337509, 5.0, 4.0,Automotive,High, 98.6371,-10.2310, 17.7550, 19.1754,-280.8171, 0.0000, 0.0000, 0.0000
24-May-2019 18:11:25.684, 0.0123, 0.0157,-1.0186,-0.0083,-0.0008,-0.0173,-0.0160, 0.0286,-0.0107, 0.0024,-0.0160,-2.2785,41.662526,-91.537992, 0.0000, 88.1709, 197.337509, 5.0, 4.0,Automotive,High, 98.6371,-10.2310, 17.0448, 19.5305,-278.7920, 0.0000, 0.0000, 0.0000
24-May-2019 18:11:25.722, 0.0103, 0.0176,-1.0198, 0.0020,-0.0008,-0.0112,-0.0160, 0.0286,-0.0096, 0.0025,-0.0160,-2.2784,41.662526,-91.537992, 0.0000, 88.1709, 197.337509, 5.0, 4.0,Automotive,High, 98.6371,-10.2310, 18.1101, 19.8856,-279.4670, 0.0000, 0.0000, 0.0000
24-May-2019 18:11:25.765, 0.0111, 0.0150,-1.0173,-0.0023,-0.0021,-0.0137,-0.0150, 0.0276,-0.0096, 0.0025,-0.0160,-2.2783,41.662526,-91.537992, 0.0000, 88.1709, 197.337509, 5.0, 4.0,Automotive,High, 98.6371,-10.2310, 17.2223, 19.7080,-278.2857, 0.0000, 0.0000, 0.0000
24-May-2019 18:11:25.800, 0.0098, 0.0155,-1.0133,-0.0059,-0.0023,-0.0147,-0.0160, 0.0265,-0.0107, 0.0023,-0.0159,-2.2782,41.662526,-91.537992, 0.0000, 88.1709, 197.337509, 5.0, 4.0,Automotive,High, 98.6371,-10.2363, 16.6897, 19.1754,-279.4670, 0.0000, 0.0000, 0.0000
24-May-2019 18:11:25.839, 0.0089, 0.0172,-1.0122,-0.0051,-0.0010,-0.0135,-0.0139, 0.0276,-0.0107, 0.0024,-0.0159,-2.2782,41.662526,-91.537992, 0.0000, 88.1709, 197.337509, 5.0, 4.0,Automotive,High, 98.6371,-10.2363, 17.9325, 19.7080,-279.2983, 0.0000, 0.0000, 0.0000
24-May-2019 18:11:25.877, 0.0039, 0.0177,-1.0148,-0.0079, 0.0013,-0.0122,-0.0160, 0.0286,-0.0096, 0.0023,-0.0159,-2.2781,41.662526,-91.537992, 0.0000, 88.1709, 197.337509, 5.0, 4.0,Automotive,High, 98.6371,-10.2363, 17.5774, 19.7080,-278.6232, 0.0000, 0.0000, 0.0000
24-May-2019 18:11:25.916,-0.0007, 0.0180,-1.0141,-0.0090, 0.0008,-0.0141,-0.0160, 0.0297,-0.0096, 0.0022,-0.0159,-2.2780,41.662526,-91.537992, 0.0000, 88.1709, 197.337509, 5.0, 4.0,Automotive,High, 98.6371,-10.2363, 17.2223, 19.7080,-277.6107, 0.0000, 0.0000, 0.0000
24-May-2019 18:11:25.957,-0.0013, 0.0168,-1.0110,-0.0056, 0.0011,-0.0168,-0.0139, 0.0286,-0.0107, 0.0021,-0.0160,-2.2779,41.662526,-91.537992, 0.0000, 88.1709, 197.337509, 5.0, 4.0,Automotive,High, 98.6371,-10.2363, 17.0448, 19.8856,-277.7794, 0.0000, 0.0000, 0.0000
24-May-2019 18:11:25.996,-0.0043, 0.0157,-1.0147,-0.0039, 0.0019,-0.0151,-0.0160, 0.0297,-0.0107, 0.0023,-0.0161,-2.2778,41.662526,-91.537992, 0.0000, 88.1709, 197.337509, 5.0, 4.0,Automotive,High, 98.6371,-10.2363, 18.1101, 18.8203,-279.4670, 0.0000, 0.0000, 0.0000
24-May-2019 18:11:26.034,-0.0040, 0.0149,-1.0123,-0.0069, 0.0001,-0.0190,-0.0150, 0.0276,-0.0118, 0.0021,-0.0161,-2.2778,41.662526,-91.537992, 0.0000, 88.1709, 197.337509, 5.0, 4.0,Automotive,High, 98.6371,-10.2363, 17.5774, 20.4182,-279.6358, 0.0000, 0.0000, 0.0000
24-May-2019 18:11:26.070,-0.0038, 0.0140,-1.0135, 0.0063, 0.0000,-0.0173,-0.0139, 0.0297,-0.0107, 0.0024,-0.0161,-2.2777,41.662526,-91.537992, 0.0000, 88.1709, 197.337509, 5.0, 4.0,Automotive,High, 98.6371,-10.2363, 15.8019, 21.1284,-278.9608, 0.0000, 0.0000, 0.0000
24-May-2019 18:11:26.110,-0.0050, 0.0170,-1.0114, 0.0045, 0.0004,-0.0156,-0.0139, 0.0318,-0.0118, 0.0026,-0.0159,-2.2776,41.662526,-91.537992, 0.0000, 88.1709, 197.288864, 5.0, 4.0,Automotive,High, 98.6371,-10.2363, 17.5774, 19.7080,-279.6358, 0.0000, 0.0000, 0.0000
24-May-2019 18:11:26.149,-0.0059, 0.0164,-1.0147, 0.0099,-0.0020,-0.0182,-0.0150, 0.0276,-0.0107, 0.0027,-0.0159,-2.2776,41.662526,-91.537992, 0.0000, 88.1709, 197.288864, 5.0, 4.0,Automotive,High, 98.6371,-10.2363, 18.8203, 18.8203,-279.1295, 0.0000, 0.0000, 0.0000
24-May-2019 18:11:26.186,-0.0031, 0.0144,-1.0171, 0.0037, 0.0006,-0.0153,-0.0150, 0.0276,-0.0107, 0.0030,-0.0159,-2.2775,41.662526,-91.537992, 0.0000, 88.1709, 197.288864, 5.0, 4.0,Automotive,High, 98.6371,-10.2363, 18.1101, 20.5958,-279.8046, 0.0000, 0.0000, 0.0000
24-May-2019 18:11:26.231,-0.0037, 0.0159,-1.0165, 0.0028,-0.0004,-0.0166,-0.0150, 0.0276,-0.0107, 0.0029,-0.0157,-2.2774,41.662526,-91.537992, 0.0000, 88.1709, 197.288864, 5.0, 4.0,Automotive,High, 98.6371,-10.2363, 17.3999, 20.2407,-278.4545, 0.0000, 0.0000, 0.0000
24-May-2019 18:11:26.266,-0.0003, 0.0176,-1.0185, 0.0052, 0.0004,-0.0185,-0.0160, 0.0276,-0.0118, 0.0029,-0.0157,-2.2773,41.662526,-91.537992, 0.0000, 88.1709, 197.288864, 5.0, 4.0,Automotive,High, 98.6371,-10.2363, 18.8203, 20.5958,-278.4545, 0.0000, 0.0000, 0.0000
24-May-2019 18:11:26.305, 0.0007, 0.0186,-1.0172, 0.0044, 0.0018,-0.0159,-0.0160, 0.0276,-0.0118, 0.0028,-0.0159,-2.2773,41.662526,-91.537992, 0.0000, 88.1709, 197.288864, 5.0, 4.0,Automotive,High, 98.6371,-10.2363, 16.5121, 20.0631,-279.6358, 0.0000, 0.0000, 0.0000
24-May-2019 18:11:26.343, 0.0059, 0.0173,-1.0161,-0.0019, 0.0034,-0.0159,-0.0128, 0.0265,-0.0107, 0.0025,-0.0159,-2.2772,41.662526,-91.537992, 0.0000, 88.1709, 197.288864, 5.0, 4.0,Automotive,High, 98.6371,-10.2363, 16.1570, 20.0631,-277.9482, 0.0000, 0.0000, 0.0000
24-May-2019 18:11:26.388, 0.0052, 0.0187,-1.0138, 0.0092, 0.0006,-0.0138,-0.0150, 0.0286,-0.0107, 0.0025,-0.0160,-2.2771,41.662526,-91.537992, 0.0000, 88.1709, 197.288864, 5.0, 4.0,Automotive,High, 98.6371,-10.2363, 17.9325, 18.9978,-279.6358, 0.0000, 0.0000, 0.0000
24-May-2019 18:11:26.422, 0.0065, 0.0170,-1.0172, 0.0075, 0.0004,-0.0134,-0.0139, 0.0276,-0.0096, 0.0027,-0.0160,-2.2770,41.662526,-91.537992, 0.0000, 88.1709, 197.288864, 5.0, 4.0,Automotive,High, 98.6371,-10.2363, 18.2876, 19.7080,-280.9859, 0.0000, 0.0000, 0.0000
24-May-2019 18:11:26.460, 0.0113, 0.0162,-1.0163,-0.0053,-0.0011,-0.0113,-0.0139, 0.0276,-0.0096, 0.0025,-0.0160,-2.2769,41.662526,-91.537992, 0.0000, 88.1709, 197.288864, 5.0, 4.0,Automotive,High, 98.6371,-10.2363, 18.2876, 19.7080,-280.9859, 0.0000, 0.0000, 0.0000
24-May-2019 18:11:26.499, 0.0126, 0.0130,-1.0180, 0.0056, 0.0006,-0.0146,-0.0150, 0.0308,-0.0107, 0.0025,-0.0160,-2.2769,41.662526,-91.537992, 0.0000, 88.1709, 197.288864, 5.0, 4.0,Automotive,High, 98.6371,-10.2363, 15.9795, 19.8856,-280.1421, 0.0000, 0.0000, 0.0000
24-May-2019 18:11:26.537, 0.0105, 0.0168,-1.0145, 0.0012,-0.0006,-0.0147,-0.0160, 0.0297,-0.0107, 0.0025,-0.0159,-2.2768,41.662526,-91.537992, 0.0000, 88.1709, 197.288864, 5.0, 4.0,Automotive,High, 98.6371,-10.2363, 17.3999, 20.9509,-279.4670, 0.0000, 0.0000, 0.0000
24-May-2019 18:11:26.576, 0.0097, 0.0150,-1.0175,-0.0032,-0.0000,-0.0127,-0.0150, 0.0286,-0.0107, 0.0024,-0.0159,-2.2767,41.662526,-91.537992, 0.0000, 88.1709, 197.288864, 5.0, 4.0,Automotive,High, 98.6371,-10.2363, 17.0448, 20.5958,-280.1421, 0.0000, 0.0000, 0.0000
24-May-2019 18:11:26.619, 0.0105, 0.0198,-1.0153,-0.0054,-0.0013,-0.0144,-0.0160, 0.0286,-0.0107, 0.0023,-0.0158,-2.2767,41.662526,-91.537992, 0.0000, 88.1709, 197.288864, 5.0, 4.0,Automotive,High, 98.6371,-10.2363, 15.8019, 21.1284,-278.6232, 0.0000, 0.0000, 0.0000
24-May-2019 18:11:26.653, 0.0086, 0.0180,-1.0154,-0.0062, 0.0004,-0.0122,-0.0160, 0.0308,-0.0096, 0.0023,-0.0159,-2.2766,41.662526,-91.537992, 0.0000, 88.1709, 197.288864, 5.0, 4.0,Automotive,High, 98.6371,-10.2363, 16.6897, 20.2407,-279.8046, 0.0000, 0.0000, 0.0000
24-May-2019 18:11:26.692, 0.0036, 0.0175,-1.0172,-0.0098, 0.0007,-0.0119,-0.0160, 0.0297,-0.0107, 0.0022,-0.0160,-2.2765,41.662526,-91.537992, 0.0000, 88.1709, 197.288864, 5.0, 4.0,Automotive,High, 98.6371,-10.2363, 17.7550, 20.5958,-278.4545, 0.0000, 0.0000, 0.0000
24-May-2019 18:11:26.732, 0.0038, 0.0153,-1.0137,-0.0002, 0.0020,-0.0184,-0.0171, 0.0318,-0.0096, 0.0024,-0.0160,-2.2765,41.662526,-91.537992, 0.0000, 88.1709, 197.288864, 5.0, 4.0,Automotive,High, 98.6371,-10.2363, 17.0448, 19.8856,-278.4545, 0.0000, 0.0000, 0.0000
24-May-2019 18:11:26.781, 0.0005, 0.0153,-1.0121,-0.0084, 0.0011,-0.0132,-0.0160, 0.0297,-0.0096, 0.0023,-0.0160,-2.2764,41.662526,-91.537992, 0.0000, 87.1665, 197.288864, 5.0, 4.0,Automotive,High, 98.6371,-10.2363, 16.5121, 20.0631,-278.6232, 0.0000, 0.0000, 0.0000
24-May-2019 18:11:26.809,-0.0028, 0.0163,-1.0140,-0.0079,-0.0008,-0.0104,-0.0150, 0.0297,-0.0096, 0.0022,-0.0160,-2.2763,41.662526,-91.537992, 0.0000, 87.1665, 197.288864, 5.0, 4.0,Automotive,High, 98.6371,-10.2363, 16.8672, 19.7080,-278.9608, 0.0000, 0.0000, 0.0000
24-May-2019 18:11:26.847,-0.0035, 0.0160,-1.0165,-0.0059, 0.0010,-0.0126,-0.0171, 0.0308,-0.0086, 0.0022,-0.0159,-2.2763,41.662526,-91.537992, 0.0000, 87.1665, 197.288864, 5.0, 4.0,Automotive,High, 98.6371,-10.2363, 17.0448, 22.0162,-279.8046, 0.0000, 0.0000, 0.0000
24-May-2019 18:11:26.887,-0.0021, 0.0150,-1.0157,-0.0042, 0.0003,-0.0155,-0.0150, 0.0297,-0.0096, 0.0023,-0.0159,-2.2762,41.662526,-91.537992, 0.0000, 87.1665, 197.288864, 5.0, 4.0,Automotive,High, 98.6371,-10.2363, 17.3999, 19.5305,-279.8046, 0.0000, 0.0000, 0.0000
24-May-2019 18:11:26.930,-0.0055, 0.0163,-1.0142,-0.0002, 0.0010,-0.0171,-0.0160, 0.0308,-0.0107, 0.0025,-0.0159,-2.2761,41.662526,-91.537992, 0.0000, 87.1665, 197.288864, 5.0, 4.0,Automotive,High, 98.6371,-10.2363, 16.6897, 19.5305,-280.1421, 0.0000, 0.0000, 0.0000
24-May-2019 18:11:26.964,-0.0057, 0.0131,-1.0162, 0.0000, 0.0024,-0.0160,-0.0150, 0.0308,-0.0096, 0.0025,-0.0160,-2.2760,41.662526,-91.537992, 0.0000, 87.1665, 197.288864, 5.0, 4.0,Automotive,High, 98.6371,-10.2363, 16.1570, 20.4182,-278.9608, 0.0000, 0.0000, 0.0000
24-May-2019 18:11:27.001,-0.0033, 0.0194,-1.0134, 0.0058, 0.0012,-0.0130,-0.0171, 0.0308,-0.0107, 0.0025,-0.0160,-2.2760,41.662526,-91.537992, 0.0000, 87.1665, 197.288864, 5.0, 4.0,Automotive,High, 98.6371,-10.2363, 17.0448, 18.8203,-280.1421, 0.0000, 0.0000, 0.0000
24-May-2019 18:11:27.050,-0.0035, 0.0168,-1.0136, 0.0038,-0.0000,-0.0176,-0.0139, 0.0318,-0.0107, 0.0024,-0.0160,-2.2759,41.662526,-91.537992, 0.0000, 87.1665, 197.288864, 5.0, 4.0,Automotive,High, 98.6371,-10.2363, 18.1101, 19.1754,-280.1421, 0.0000, 0.0000, 0.0000
24-May-2019 18:11:27.081,-0.0026, 0.0191,-1.0144,-0.0050, 0.0030,-0.0146,-0.0139, 0.0308,-0.0118, 0.0024,-0.0161,-2.2758,41.662526,-91.537992, 0.0000, 87.1665, 197.288864, 5.0, 4.0,Automotive,High, 98.6371,-10.2363, 18.4652, 20.2407,-279.4670, 0.0000, 0.0000, 0.0000
24-May-2019 18:11:27.117,-0.0018, 0.0172,-1.0171, 0.0100,-0.0005,-0.0135,-0.0171, 0.0329,-0.0107, 0.0025,-0.0160,-2.2758,41.662526,-91.537992, 0.0000, 87.1665, 197.288864, 5.0, 4.0,Automotive,Low, 98.6371,-10.2363, 18.9978, 17.9325,-277.6107, 0.0000, 0.0000, 0.0000
24-May-2019 18:11:27.156, 0.0043, 0.0173,-1.0172, 0.0071, 0.0008,-0.0187,-0.0139, 0.0329,-0.0107, 0.0024,-0.0160,-2.2757,41.662526,-91.537992, 0.0000, 87.1665, 197.288864, 5.0, 4.0,Automotive,Low, 98.6371,-10.2363, 17.9325, 20.0631,-278.2857, 0.0000, 0.0000, 0.0000
24-May-2019 18:11:27.195, 0.0065, 0.0170,-1.0173, 0.0070,-0.0006,-0.0160,-0.0160, 0.0329,-0.0096, 0.0023,-0.0159,-2.2757,41.662526,-91.537992, 0.0000, 87.1665, 197.200516, 5.0, 4.0,Automotive,Low, 98.6371,-10.2363, 17.7550, 20.9509,-278.7920, 0.0000, 0.0000, 0.0000
24-May-2019 18:11:27.233, 0.0070, 0.0164,-1.0178, 0.0069,-0.0014,-0.0143,-0.0150, 0.0339,-0.0096, 0.0023,-0.0159,-2.2756,41.662526,-91.537992, 0.0000, 87.1665, 197.200516, 5.0, 4.0,Automotive,Low, 98.6371,-10.2363, 16.6897, 20.9509,-277.7794, 0.0000, 0.0000, 0.0000
24-May-2019 18:11:27.274, 0.0115, 0.0161,-1.0168, 0.0060,-0.0004,-0.0136,-0.0171, 0.0350,-0.0107, 0.0023,-0.0159,-2.2755,41.662526,-91.537992, 0.0000, 87.1665, 197.200516, 5.0, 4.0,Automotive,Low, 98.6371,-10.2363, 17.5774, 20.0631,-278.6232, 0.0000, 0.0000, 0.0000
24-May-2019 18:11:27.311, 0.0113, 0.0180,-1.0143, 0.0058,-0.0012,-0.0115,-0.0139, 0.0339,-0.0107, 0.0026,-0.0159,-2.2755,41.662526,-91.537992, 0.0000, 87.1665, 197.200516, 5.0, 4.0,Automotive,Low, 98.6371,-10.2363, 15.6244, 20.5958,-278.4545, 0.0000, 0.0000, 0.0000
24-May-2019 18:11:27.351, 0.0100, 0.0168,-1.0140, 0.0020,-0.0002,-0.0137,-0.0171, 0.0329,-0.0086, 0.0027,-0.0159,-2.2754,41.662526,-91.537992, 0.0000, 87.1665, 197.200516, 5.0, 4.0,Automotive,Low, 98.6371,-10.2363, 17.5774, 19.7080,-280.6484, 0.0000, 0.0000, 0.0000
24-May-2019 18:11:27.388, 0.0093, 0.0185,-1.0156,-0.0047, 0.0019,-0.0139,-0.0150, 0.0329,-0.0107, 0.0028,-0.0159,-2.2753,41.662526,-91.537992, 0.0000, 87.1665, 197.200516, 5.0, 4.0,Automotive,Low, 98.6371,-10.2363, 17.3999, 20.9509,-279.4670, 0.0000, 0.0000, 0.0000
24-May-2019 18:11:27.427, 0.0090, 0.0165,-1.0143,-0.0071,-0.0006,-0.0156,-0.0150, 0.0318,-0.0096, 0.0027,-0.0160,-2.2753,41.662526,-91.537992, 0.0000, 87.1665, 197.200516, 5.0, 4.0,Automotive,Low, 98.6371,-10.2363, 17.2223, 19.3529,-279.9733, 0.0000, 0.0000, 0.0000
24-May-2019 18:11:27.470, 0.0059, 0.0174,-1.0126,-0.0082, 0.0009,-0.0173,-0.0171, 0.0297,-0.0086, 0.0026,-0.0160,-2.2752,41.662526,-91.537992, 0.0000, 87.1665, 197.200516, 5.0, 4.0,Automotive,Low, 98.6371,-10.2363, 16.8672, 20.7733,-278.9608, 0.0000, 0.0000, 0.0000
24-May-2019 18:11:27.505, 0.0049, 0.0155,-1.0124,-0.0111,-0.0016,-0.0143,-0.0171, 0.0297,-0.0086, 0.0024,-0.0160,-2.2752,41.662526,-91.537992, 0.0000, 87.1665, 197.200516, 5.0, 4.0,Automotive,Low, 98.6371,-10.2363, 18.1101, 19.1754,-278.7920, 0.0000, 0.0000, 0.0000
24-May-2019 18:11:27.545, 0.0032, 0.0190,-1.0093,-0.0095, 0.0001,-0.0155,-0.0150, 0.0318,-0.0107, 0.0024,-0.0160,-2.2751,41.662526,-91.537992, 0.0000, 87.1665, 197.200516, 5.0, 4.0,Automotive,Low, 98.6371,-10.2363, 18.1101, 19.1754,-278.7920, 0.0000, 0.0000, 0.0000
24-May-2019 18:11:27.583, 0.0002, 0.0174,-1.0090,-0.0053, 0.0008,-0.0123,-0.0150, 0.0308,-0.0107, 0.0025,-0.0161,-2.2751,41.662526,-91.537992, 0.0000, 87.1665, 197.200516, 5.0, 4.0,Automotive,Low, 98.6371,-10.2363, 15.8019, 20.0631,-278.6232, 0.0000, 0.0000, 0.0000
24-May-2019 18:11:27.621,-0.0017, 0.0155,-1.0142,-0.0048, 0.0011,-0.0141,-0.0150, 0.0308,-0.0107, 0.0024,-0.0162,-2.2750,41.662526,-91.537992, 0.0000, 87.1665, 197.200516, 5.0, 4.0,Automotive,Low, 98.6371,-10.2363, 17.7550, 19.8856,-277.7794, 0.0000, 0.0000, 0.0000
24-May-2019 18:11:27.660,-0.0048, 0.0139,-1.0164, 0.0089, 0.0007,-0.0154,-0.0139, 0.0308,-0.0107, 0.0027,-0.0161,-2.2750,41.662526,-91.537992, 0.0000, 87.1665, 197.200516, 5.0, 4.0,Automotive,Low, 98.6371,-10.2363, 18.2876, 18.6427,-279.6358, 0.0000, 0.0000, 0.0000
24-May-2019 18:11:27.704,-0.0034, 0.0124,-1.0151,-0.0010, 0.0028,-0.0189,-0.0160, 0.0297,-0.0086, 0.0027,-0.0161,-2.2749,41.662526,-91.537992, 0.0000, 87.1665, 197.200516, 5.0, 4.0,Automotive,Low, 98.6371,-10.2363, 18.1101, 20.5958,-280.4796, 0.0000, 0.0000, 0.0000
24-May-2019 18:11:27.738,-0.0050, 0.0159,-1.0135, 0.0008,-0.0007,-0.0179,-0.0160, 0.0297,-0.0086, 0.0026,-0.0160,-2.2748,41.662526,-91.537992, 0.0000, 87.1665, 197.200516, 5.0, 4.0,Automotive,Low, 98.6371,-10.2363, 18.2876, 20.7733,-278.6232, 0.0000, 0.0000, 0.0000
24-May-2019 18:11:27.776,-0.0054, 0.0177,-1.0122, 0.0016, 0.0023,-0.0159,-0.0171, 0.0286,-0.0107, 0.0026,-0.0160,-2.2747,41.662526,-91.537992, 0.0000, 87.1665, 197.200516, 5.0, 4.0,Automotive,Low, 98.6371,-10.2363, 17.2223, 18.9978,-279.6358, 0.0000, 0.0000, 0.0000
24-May-2019 18:11:27.818,-0.0046, 0.0184,-1.0154,-0.0068, 0.0024,-0.0155,-0.0171, 0.0297,-0.0096, 0.0022,-0.0161,-2.2747,41.662526,-91.537992, 0.0000, 87.1665, 197.200516, 5.0, 4.0,Automotive,Low, 98.6371,-10.2337, 17.5774, 20.4182,-278.9608, 0.0000, 0.0000, 0.0000
24-May-2019 18:11:27.859,-0.0046, 0.0190,-1.0137, 0.0032,-0.0001,-0.0172,-0.0182, 0.0308,-0.0107, 0.0022,-0.0161,-2.2746,41.662526,-91.537992, 0.0000, 87.1665, 197.200516, 5.0, 4.0,Automotive,Low, 98.6371,-10.2337, 16.8672, 18.6427,-279.6358, 0.0000, 0.0000, 0.0000
24-May-2019 18:11:27.892,-0.0036, 0.0175,-1.0173, 0.0048,-0.0009,-0.0172,-0.0160, 0.0286,-0.0086, 0.0023,-0.0160,-2.2745,41.662526,-91.537992, 0.0000, 87.1665, 197.200516, 5.0, 4.0,Automotive,Low, 98.6371,-10.2337, 17.2223, 18.9978,-280.6484, 0.0000, 0.0000, 0.0000
24-May-2019 18:11:27.931, 0.0060, 0.0175,-1.0191, 0.0043,-0.0003,-0.0131,-0.0150, 0.0308,-0.0107, 0.0023,-0.0161,-2.2745,41.662526,-91.537992, 0.0000, 87.1665, 197.200516, 5.0, 4.0,Automotive,Low, 98.6371,-10.2337, 23.9692, 19.3529,-273.2229, 0.0000, 0.0000, 0.0000
24-May-2019 18:11:27.976, 0.0105, 0.0169,-1.0217, 0.0061,-0.0018,-0.0185,-0.0160, 0.0286,-0.0107, 0.0024,-0.0160,-2.2744,41.662526,-91.537992, 0.0000, 87.1665, 197.200516, 5.0, 4.0,Automotive,Low, 98.6371,-10.2337, 20.4182, 18.6427,-276.9356, 0.0000, 0.0000, 0.0000
24-May-2019 18:11:28.014, 0.0105, 0.0135,-1.0203, 0.0078,-0.0024,-0.0204,-0.0160, 0.0286,-0.0096, 0.0028,-0.0159,-2.2743,41.662526,-91.537992, 0.0000, 87.1665, 197.200516, 5.0, 4.0,Automotive,Low, 98.6371,-10.2337, 18.8203, 18.4652,-277.1044, 0.0000, 0.0000, 0.0000
24-May-2019 18:11:28.046, 0.0122, 0.0154,-1.0172, 0.0072,-0.0016,-0.0144,-0.0150, 0.0286,-0.0096, 0.0028,-0.0159,-2.2743,41.662526,-91.537992, 0.0000, 87.1665, 197.200516, 5.0, 4.0,Automotive,Low, 98.6371,-10.2337, 17.5774, 18.9978,-277.9482, 0.0000, 0.0000, 0.0000
24-May-2019 18:11:28.086, 0.0123, 0.0169,-1.0148, 0.0049, 0.0012,-0.0100,-0.0171, 0.0276,-0.0086, 0.0030,-0.0159,-2.2742,41.662526,-91.537992, 0.0000, 87.1665, 197.200516, 5.0, 4.0,Automotive,Low, 98.6371,-10.2337, 18.9978, 19.7080,-277.9482, 0.0000, 0.0000, 0.0000
24-May-2019 18:11:28.126, 0.0110, 0.0190,-1.0111, 0.0051, 0.0013,-0.0092,-0.0150, 0.0265,-0.0107, 0.0031,-0.0160,-2.2742,41.662526,-91.537992, 0.0000, 87.1665, 197.200516, 5.0, 4.0,Automotive,Low, 98.6371,-10.2337, 17.9325, 18.9978,-278.6232, 0.0000, 0.0000, 0.0000
24-May-2019 18:11:28.163, 0.0078, 0.0169,-1.0136,-0.0009, 0.0016,-0.0116,-0.0150, 0.0265,-0.0118, 0.0031,-0.0162,-2.2741,41.662526,-91.537992, 0.0000, 87.1665, 197.200516, 5.0, 4.0,Automotive,Low, 98.6371,-10.2337, 18.9978, 19.3529,-276.5981, 0.0000, 0.0000, 0.0000
24-May-2019 18:11:28.202, 0.0058, 0.0167,-1.0164,-0.0109, 0.0013,-0.0124,-0.0150, 0.0286,-0.0096, 0.0029,-0.0162,-2.2741,41.662526,-91.537992, 0.0000, 87.1665, 197.317841, 5.0, 4.0,Automotive,Low, 98.6371,-10.2337, 19.5305, 19.1754,-277.4419, 0.0000, 0.0000, 0.0000
24-May-2019 18:11:28.247, 0.0072, 0.0165,-1.0158,-0.0106,-0.0006,-0.0184,-0.0139, 0.0286,-0.0096, 0.0028,-0.0161,-2.2740,41.662526,-91.537992, 0.0000, 87.1665, 197.317841, 5.0, 4.0,Automotive,Low, 98.6371,-10.2337, 18.6427, 19.7080,-277.9482, 0.0000, 0.0000, 0.0000
24-May-2019 18:11:28.282, 0.0020, 0.0145,-1.0155,-0.0073,-0.0005,-0.0155,-0.0150, 0.0286,-0.0096, 0.0025,-0.0161,-2.2739,41.662526,-91.537992, 0.0000, 87.1665, 197.317841, 5.0, 4.0,Automotive,Low, 98.6371,-10.2337, 19.7080, 18.6427,-277.9482, 0.0000, 0.0000, 0.0000
24-May-2019 18:11:28.318,-0.0009, 0.0169,-1.0137,-0.0032, 0.0006,-0.0169,-0.0128, 0.0286,-0.0107, 0.0025,-0.0160,-2.2739,41.662526,-91.537992, 0.0000, 87.1665, 197.317841, 5.0, 4.0,Automotive,Low, 98.6371,-10.2337, 18.8203, 20.5958,-278.4545, 0.0000, 0.0000, 0.0000
24-May-2019 18:11:28.356,-0.0007, 0.0158,-1.0124,-0.0093, 0.0026,-0.0124,-0.0139, 0.0297,-0.0107, 0.0023,-0.0161,-2.2738,41.662526,-91.537992, 0.0000, 87.1665, 197.317841, 5.0, 4.0,Automotive,Low, 98.6371,-10.2337, 18.4652, 20.2407,-278.4545, 0.0000, 0.0000, 0.0000
24-May-2019 18:11:28.399,-0.0007, 0.0170,-1.0111,-0.0048, 0.0015,-0.0116,-0.0150, 0.0297,-0.0107, 0.0025,-0.0163,-2.2738,41.662526,-91.537992, 0.0000, 87.1665, 197.317841, 5.0, 4.0,Automotive,Low, 98.6371,-10.2337, 18.8203, 19.5305,-278.4545, 0.0000, 0.0000, 0.0000
24-May-2019 18:11:28.434,-0.0017, 0.0139,-1.0133,-0.0011, 0.0017,-0.0126,-0.0171, 0.0286,-0.0107, 0.0027,-0.0163,-2.2737,41.662526,-91.537992, 0.0000, 87.1665, 197.317841, 5.0, 4.0,Automotive,Low, 98.6371,-10.2337, 17.2223, 20.4182,-276.2606, 0.0000, 0.0000, 0.0000
24-May-2019 18:11:28.474,-0.0010, 0.0172,-1.0139, 0.0103, 0.0016,-0.0166,-0.0150, 0.0276,-0.0107, 0.0029,-0.0163,-2.2737,41.662526,-91.537992, 0.0000, 87.1665, 197.317841, 5.0, 4.0,Automotive,Low, 98.6371,-10.2337, 19.5305, 19.5305,-278.4545, 0.0000, 0.0000, 0.0000
24-May-2019 18:11:28.513,-0.0029, 0.0179,-1.0154,-0.0002,-0.0003,-0.0170,-0.0139, 0.0265,-0.0118, 0.0029,-0.0162,-2.2736,41.662526,-91.537992, 0.0000, 87.1665, 197.317841, 5.0, 4.0,Automotive,Low, 98.6371,-10.2337, 17.7550, 19.5305,-278.1170, 0.0000, 0.0000, 0.0000
24-May-2019 18:11:28.555,-0.0066, 0.0188,-1.0175, 0.0008, 0.0024,-0.0174,-0.0160, 0.0265,-0.0107, 0.0028,-0.0162,-2.2735,41.662526,-91.537992, 0.0000, 87.1665, 197.317841, 5.0, 4.0,Automotive,Low, 98.6371,-10.2337, 18.2876, 20.0631,-277.2732, 0.0000, 0.0000, 0.0000
24-May-2019 18:11:28.591,-0.0064, 0.0194,-1.0179, 0.0070, 0.0028,-0.0163,-0.0139, 0.0276,-0.0107, 0.0027,-0.0162,-2.2735,41.662526,-91.537992, 0.0000, 87.1665, 197.317841, 5.0, 4.0,Automotive,Low, 98.6371,-10.2337, 19.3529, 20.0631,-278.6232, 0.0000, 0.0000, 0.0000
24-May-2019 18:11:28.639,-0.0036, 0.0182,-1.0146, 0.0006, 0.0028,-0.0148,-0.0139, 0.0265,-0.0107, 0.0024,-0.0164,-2.2734,41.662526,-91.537992, 0.0000, 87.1665, 197.317841, 5.0, 4.0,Automotive,Low, 98.6371,-10.2337, 19.3529, 20.0631,-278.6232, 0.0000, 0.0000, 0.0000
24-May-2019 18:11:28.671,-0.0020, 0.0162,-1.0115, 0.0027, 0.0004,-0.0146,-0.0150, 0.0276,-0.0096, 0.0024,-0.0164,-2.2733,41.662526,-91.537992, 0.0000, 87.1665, 197.317841, 5.0, 4.0,Automotive,Low, 98.6371,-10.2337, 17.2223, 19.7080,-278.2857, 0.0000, 0.0000, 0.0000
24-May-2019 18:11:28.707, 0.0022, 0.0170,-1.0111, 0.0066, 0.0002,-0.0158,-0.0139, 0.0286,-0.0107, 0.0024,-0.0164,-2.2733,41.662526,-91.537992, 0.0000, 87.1665, 197.317841, 5.0, 4.0,Automotive,Low, 98.6371,-10.2337, 17.9325, 19.7080,-277.2732, 0.0000, 0.0000, 0.0000
24-May-2019 18:11:28.745, 0.0069, 0.0148,-1.0148, 0.0088,-0.0006,-0.0151,-0.0150, 0.0286,-0.0107, 0.0024,-0.0163,-2.2733,41.662526,-91.537992, 0.0000, 87.1665, 197.317841, 5.0, 4.0,Automotive,Low, 98.6371,-10.2337, 18.2876, 19.3529,-277.9482, 0.0000, 0.0000, 0.0000
24-May-2019 18:11:28.784, 0.0099, 0.0149,-1.0164,-0.0053,-0.0016,-0.0119,-0.0160, 0.0286,-0.0118, 0.0024,-0.0162,-2.2732,41.662526,-91.537992, 0.0000, 87.1665, 197.317841, 5.0, 4.0,Automotive,Low, 98.6371,-10.2337, 18.1101, 18.4652,-276.0919, 0.0000, 0.0000, 0.0000
24-May-2019 18:11:28.823, 0.0082, 0.0156,-1.0173, 0.0108, 0.0021,-0.0166,-0.0171, 0.0297,-0.0096, 0.0026,-0.0161,-2.2731,41.662526,-91.537992, 0.0000, 87.1665, 197.317841, 5.0, 4.0,Automotive,Low, 98.6370,-10.2284, 18.6427, 19.3529,-277.9482, 0.0000, 0.0000, 0.0000
24-May-2019 18:11:28.862, 0.0060, 0.0155,-1.0186,-0.0038, 0.0014,-0.0131,-0.0171, 0.0297,-0.0096, 0.0025,-0.0162,-2.2731,41.662526,-91.537992, 0.0000, 87.1665, 197.317841, 5.0, 4.0,Automotive,Low, 98.6370,-10.2284, 19.1754, 19.1754,-278.4545, 0.0000, 0.0000, 0.0000
24-May-2019 18:11:28.901, 0.0105, 0.0191,-1.0141,-0.0024, 0.0009,-0.0148,-0.0160, 0.0308,-0.0096, 0.0026,-0.0162,-2.2730,41.662526,-91.537992, 0.0000, 87.1665, 197.317841, 5.0, 4.0,Automotive,Low, 98.6370,-10.2284, 19.1754, 19.8856,-278.4545, 0.0000, 0.0000, 0.0000
24-May-2019 18:11:28.940, 0.0082, 0.0189,-1.0133,-0.0041, 0.0002,-0.0115,-0.0160, 0.0308,-0.0096, 0.0025,-0.0164,-2.2729,41.662526,-91.537992, 0.0000, 87.1665, 197.317841, 5.0, 4.0,Automotive,Low, 98.6370,-10.2284, 17.9325, 19.7080,-277.9482, 0.0000, 0.0000, 0.0000
24-May-2019 18:11:28.978, 0.0038, 0.0188,-1.0127,-0.0068, 0.0031,-0.0142,-0.0160, 0.0297,-0.0096, 0.0026,-0.0164,-2.2728,41.662526,-91.537992, 0.0000, 87.1665, 197.317841, 5.0, 4.0,Automotive,Low, 98.6370,-10.2284, 17.9325, 20.4182,-278.6232, 0.0000, 0.0000, 0.0000
24-May-2019 18:11:29.017, 0.0027, 0.0161,-1.0152,-0.0095,-0.0008,-0.0108,-0.0150, 0.0318,-0.0107, 0.0023,-0.0165,-2.2728,41.662526,-91.537992, 0.0000, 87.1665, 197.317841, 5.0, 4.0,Automotive,Low, 98.6370,-10.2284, 19.3529, 18.6427,-277.6107, 0.0000, 0.0000, 0.0000
24-May-2019 18:11:29.059, 0.0031, 0.0150,-1.0184,-0.0098,-0.0022,-0.0133,-0.0150, 0.0318,-0.0107, 0.0021,-0.0164,-2.2727,41.662526,-91.537992, 0.0000, 87.1665, 197.317841, 5.0, 4.0,Automotive,Low, 98.6370,-10.2284, 19.3529, 20.0631,-278.2857, 0.0000, 0.0000, 0.0000
24-May-2019 18:11:29.105, 0.0015, 0.0143,-1.0160,-0.0068,-0.0008,-0.0166,-0.0182, 0.0308,-0.0118, 0.0022,-0.0163,-2.2726,41.662526,-91.537992, 0.0000, 87.1665, 197.317841, 5.0, 4.0,Automotive,Low, 98.6370,-10.2284, 18.2876, 20.0631,-277.9482, 0.0000, 0.0000, 0.0000
24-May-2019 18:11:29.136,-0.0015, 0.0126,-1.0155,-0.0064, 0.0025,-0.0156,-0.0139, 0.0308,-0.0107, 0.0025,-0.0163,-2.2726,41.662526,-91.537992, 0.0000, 87.1665, 197.317841, 5.0, 4.0,Automotive,Low, 98.6370,-10.2284, 18.9978, 20.4182,-277.9482, 0.0000, 0.0000, 0.0000
24-May-2019 18:11:29.170,-0.0009, 0.0156,-1.0142,-0.0049,-0.0005,-0.0159,-0.0171, 0.0318,-0.0096, 0.0025,-0.0162,-2.2725,41.662526,-91.537992, 0.0000, 87.1665, 197.317841, 5.0, 4.0,Automotive,Low, 98.6370,-10.2284, 18.4652, 18.8203,-277.4419, 0.0000, 0.0000, 0.0000
24-May-2019 18:11:29.213,-0.0015, 0.0193,-1.0115, 0.0008, 0.0019,-0.0151,-0.0160, 0.0308,-0.0107, 0.0026,-0.0162,-2.2724,41.662526,-91.537992, 0.0000, 87.1665, 197.226257, 5.0, 4.0,Automotive,Low, 98.6370,-10.2284, 18.9978, 19.3529,-278.6232, 0.0000, 0.0000, 0.0000
24-May-2019 18:11:29.248,-0.0025, 0.0182,-1.0109, 0.0081, 0.0018,-0.0160,-0.0150, 0.0318,-0.0107, 0.0028,-0.0162,-2.2724,41.662526,-91.537992, 0.0000, 87.1665, 197.226257, 5.0, 4.0,Automotive,Low, 98.6370,-10.2284, 18.8203, 19.5305,-277.4419, 0.0000, 0.0000, 0.0000
24-May-2019 18:11:29.287,-0.0068, 0.0187,-1.0150, 0.0014, 0.0031,-0.0164,-0.0160, 0.0297,-0.0096, 0.0027,-0.0164,-2.2723,41.662526,-91.537992, 0.0000, 87.1665, 197.226257, 5.0, 4.0,Automotive,Low, 98.6370,-10.2284, 18.8203, 20.5958,-278.7920, 0.0000, 0.0000, 0.0000
24-May-2019 18:11:29.329,-0.0048, 0.0165,-1.0161,-0.0073, 0.0002,-0.0162,-0.0160, 0.0308,-0.0107, 0.0025,-0.0164,-2.2723,41.662526,-91.537992, 0.0000, 87.1665, 197.226257, 5.0, 4.0,Automotive,Low, 98.6370,-10.2284, 17.0448, 19.5305,-278.4545, 0.0000, 0.0000, 0.0000
24-May-2019 18:11:29.376,-0.0047, 0.0183,-1.0152, 0.0038,-0.0013,-0.0172,-0.0128, 0.0297,-0.0118, 0.0025,-0.0162,-2.2722,41.662526,-91.537992, 0.0000, 87.1665, 197.226257, 5.0, 4.0,Automotive,Low, 98.6370,-10.2284, 17.9325, 20.4182,-278.6232, 0.0000, 0.0000, 0.0000
24-May-2019 18:11:29.406,-0.0007, 0.0153,-1.0150, 0.0057, 0.0000,-0.0174,-0.0160, 0.0308,-0.0096, 0.0025,-0.0161,-2.2721,41.662526,-91.537992, 0.0000, 87.1665, 197.226257, 5.0, 4.0,Automotive,Low, 98.6370,-10.2284, 18.8203, 20.2407,-278.4545, 0.0000, 0.0000, 0.0000
24-May-2019 18:11:29.442, 0.0038, 0.0186,-1.0163,-0.0030,-0.0012,-0.0127,-0.0171, 0.0318,-0.0107, 0.0023,-0.0161,-2.2720,41.662526,-91.537992, 0.0000, 87.1665, 197.226257, 5.0, 4.0,Automotive,Low, 98.6370,-10.2284, 18.1101, 19.8856,-278.1170, 0.0000, 0.0000, 0.0000
24-May-2019 18:11:29.481, 0.0069, 0.0180,-1.0156, 0.0093,-0.0003,-0.0152,-0.0128, 0.0329,-0.0096, 0.0024,-0.0161,-2.2720,41.662526,-91.537992, 0.0000, 87.1665, 197.226257, 5.0, 4.0,Automotive,Low, 98.6370,-10.2284, 19.5305, 19.1754,-278.4545, 0.0000, 0.0000, 0.0000
24-May-2019 18:11:29.522, 0.0085, 0.0166,-1.0167, 0.0061, 0.0006,-0.0169,-0.0150, 0.0318,-0.0128, 0.0024,-0.0160,-2.2720,41.662526,-91.537992, 0.0000, 87.1665, 197.226257, 5.0, 4.0,Automotive,Low, 98.6370,-10.2284, 19.5305, 19.1754,-278.4545, 0.0000, 0.0000, 0.0000
24-May-2019 18:11:29.564, 0.0096, 0.0149,-1.0198, 0.0044, 0.0018,-0.0123,-0.0160, 0.0308,-0.0096, 0.0023,-0.0161,-2.2719,41.662526,-91.537992, 0.0000, 87.1665, 197.226257, 5.0, 4.0,Automotive,Low, 98.6370,-10.2284, 18.1101, 18.8203,-277.7794, 0.0000, 0.0000, 0.0000
24-May-2019 18:11:29.599, 0.0113, 0.0173,-1.0178, 0.0011,-0.0000,-0.0131,-0.0150, 0.0308,-0.0118, 0.0022,-0.0161,-2.2718,41.662526,-91.537992, 0.0000, 87.1665, 197.226257, 5.0, 4.0,Automotive,Low, 98.6370,-10.2284, 18.1101, 19.5305,-279.1295, 0.0000, 0.0000, 0.0000
24-May-2019 18:11:29.635, 0.0115, 0.0154,-1.0161,-0.0008,-0.0007,-0.0129,-0.0160, 0.0297,-0.0096, 0.0024,-0.0161,-2.2718,41.662526,-91.537992, 0.0000, 87.1665, 197.226257, 5.0, 4.0,Automotive,Low, 98.6370,-10.2284, 18.1101, 19.5305,-279.1295, 0.0000, 0.0000, 0.0000
24-May-2019 18:11:29.676, 0.0103, 0.0181,-1.0157,-0.0072, 0.0004,-0.0130,-0.0182, 0.0297,-0.0107, 0.0023,-0.0161,-2.2717,41.662526,-91.537992, 0.0000, 87.1665, 197.226257, 5.0, 4.0,Automotive,Low, 98.6370,-10.2284, 18.2876, 18.9978,-278.6232, 0.0000, 0.0000, 0.0000
24-May-2019 18:11:29.713, 0.0080, 0.0181,-1.0157,-0.0072, 0.0022,-0.0142,-0.0150, 0.0286,-0.0107, 0.0021,-0.0162,-2.2717,41.662526,-91.537992, 0.0000, 87.1665, 197.226257, 5.0, 4.0,Automotive,Low, 98.6370,-10.2284, 17.2223, 19.7080,-277.6107, 0.0000, 0.0000, 0.0000
24-May-2019 18:11:29.751, 0.0027, 0.0157,-1.0117,-0.0067,-0.0002,-0.0152,-0.0160, 0.0276,-0.0107, 0.0019,-0.0163,-2.2716,41.662526,-91.537992, 0.0000, 87.1665, 197.226257, 5.0, 4.0,Automotive,Low, 98.6370,-10.2284, 18.1101, 18.4652,-279.1295, 0.0000, 0.0000, 0.0000
24-May-2019 18:11:29.790,-0.0034, 0.0171,-1.0100, 0.0023,-0.0030,-0.0146,-0.0171, 0.0286,-0.0096, 0.0021,-0.0162,-2.2715,41.662526,-91.537992, 0.0000, 87.1665, 197.226257, 5.0, 4.0,Automotive,Low, 98.6370,-10.2284, 17.5774, 19.7080,-278.9608, 0.0000, 0.0000, 0.0000
24-May-2019 18:11:29.838,-0.0044, 0.0108,-1.0112,-0.0022,-0.0068,-0.0172,-0.0096, 0.0276,-0.0118, 0.0021,-0.0157,-2.2715,41.662526,-91.537992, 0.0000, 87.1665, 197.226257, 5.0, 4.0,Automotive,Low, 98.6370,-10.2284, 17.2223, 19.3529,-278.9608, 0.0000, 0.0000, 0.0000
24-May-2019 18:11:29.871,-0.0037, 0.0076,-1.0141,-0.0018, 0.0012,-0.0191,-0.0128, 0.0308,-0.0118, 0.0019,-0.0153,-2.2714,41.662526,-91.537992, 0.0000, 87.1665, 197.226257, 5.0, 4.0,Automotive,Low, 98.6370,-10.2284, 20.2407, 20.2407,-277.4419, 0.0000, 0.0000, 0.0000
24-May-2019 18:11:29.906,-0.0046, 0.0121,-1.0128, 0.0063, 0.0003,-0.0176,-0.0182, 0.0308,-0.0096, 0.0021,-0.0151,-2.2714,41.662526,-91.537992, 0.0000, 87.1665, 197.226257, 5.0, 4.0,Automotive,Low, 98.6370,-10.2284, 18.9978, 17.5774,-276.9356, 0.0000, 0.0000, 0.0000
24-May-2019 18:11:29.945,-0.0075, 0.0090,-1.0145, 0.0054,-0.0037,-0.0181,-0.0150, 0.0255,-0.0096, 0.0022,-0.0147,-2.2713,41.662526,-91.537992, 0.0000, 87.1665, 197.226257, 5.0, 4.0,Automotive,Low, 98.6370,-10.2284, 18.9978, 19.3529,-278.2857, 0.0000, 0.0000, 0.0000
24-May-2019 18:11:29.984,-0.0022, 0.0057,-1.0123, 0.0038,-0.0060,-0.0133,-0.0160, 0.0255,-0.0107, 0.0022,-0.0143,-2.2713,41.662526,-91.537992, 0.0000, 87.1665, 197.226257, 5.0, 4.0,Automotive,Low, 98.6370,-10.2284, 18.6427, 19.7080,-276.9356, 0.0000, 0.0000, 0.0000
24-May-2019 18:11:30.032,-0.0017, 0.0019,-1.0145, 0.0041,-0.0089,-0.0152,-0.0160, 0.0297,-0.0096, 0.0023,-0.0134,-2.2712,41.662526,-91.537992, 0.0000, 87.1665, 197.226257, 5.0, 4.0,Automotive,Low, 98.6370,-10.2284, 18.2876, 19.7080,-277.6107, 0.0000, 0.0000, 0.0000
24-May-2019 18:11:30.068,-0.0013,-0.0002,-1.0192, 0.0042,-0.0136,-0.0172,-0.0107, 0.0276,-0.0107, 0.0024,-0.0129,-2.2711,41.662526,-91.537992, 0.0000, 87.1665, 197.226257, 5.0, 4.0,Automotive,Low, 98.6370,-10.2284, 19.8856, 20.2407,-276.7669, 0.0000, 0.0000, 0.0000
24-May-2019 18:11:30.109, 0.0009,-0.0067,-1.0184, 0.0021,-0.0169,-0.0134,-0.0150, 0.0276,-0.0118, 0.0024,-0.0121,-2.2710,41.662526,-91.537992, 0.0000, 87.1665, 197.260361, 5.0, 4.0,Automotive,Low, 98.6370,-10.2284, 18.8203, 20.9509,-277.4419, 0.0000, 0.0000, 0.0000
24-May-2019 18:11:30.139, 0.0049,-0.0062,-1.0167, 0.0045,-0.0202,-0.0168,-0.0150, 0.0276,-0.0118, 0.0025,-0.0108,-2.2710,41.662526,-91.537992, 0.0000, 87.1665, 197.260361, 5.0, 4.0,Automotive,Low, 98.6370,-10.2284, 18.1101, 19.5305,-277.7794, 0.0000, 0.0000, 0.0000
24-May-2019 18:11:30.177, 0.0116,-0.0096,-1.0168, 0.0094,-0.0206,-0.0159,-0.0160, 0.0276,-0.0107, 0.0023,-0.0088,-2.2709,41.662526,-91.537992, 0.0000, 87.1665, 197.260361, 5.0, 4.0,Automotive,Low, 98.6370,-10.2284, 18.6427, 20.4182,-278.2857, 0.0000, 0.0000, 0.0000
24-May-2019 18:11:30.216, 0.0150,-0.0143,-1.0152, 0.0063,-0.0209,-0.0133,-0.0160, 0.0276,-0.0107, 0.0021,-0.0070,-2.2709,41.662526,-91.537992, 0.0000, 87.1665, 197.260361, 5.0, 4.0,Automotive,Low, 98.6370,-10.2284, 18.9978, 20.7733,-278.9608, 0.0000, 0.0000, 0.0000
24-May-2019 18:11:30.260, 0.0180,-0.0148,-1.0169, 0.0040,-0.0123,-0.0110,-0.0160, 0.0265,-0.0096, 0.0018,-0.0056,-2.2709,41.662526,-91.537992, 0.0000, 87.1665, 197.260361, 5.0, 4.0,Automotive,Low, 98.6370,-10.2284, 17.5774, 19.3529,-278.9608, 0.0000, 0.0000, 0.0000
24-May-2019 18:11:30.300, 0.0164,-0.0170,-1.0209, 0.0029,-0.0147,-0.0104,-0.0150, 0.0286,-0.0107, 0.0021,-0.0044,-2.2708,41.662526,-91.537992, 0.0000, 87.1665, 197.260361, 5.0, 4.0,Automotive,Low, 98.6370,-10.2284, 19.3529, 19.7080,-278.2857, 0.0000, 0.0000, 0.0000
24-May-2019 18:11:30.334, 0.0170,-0.0153,-1.0202,-0.0036,-0.0204,-0.0141,-0.0171, 0.0265,-0.0096, 0.0022,-0.0035,-2.2708,41.662526,-91.537992, 0.0000, 87.1665, 197.260361, 5.0, 4.0,Automotive,Low, 98.6370,-10.2284, 19.7080, 19.3529,-279.6358, 0.0000, 0.0000, 0.0000
24-May-2019 18:11:30.371, 0.0142,-0.0238,-1.0189,-0.0104,-0.0179,-0.0137,-0.0171, 0.0265,-0.0096, 0.0023,-0.0029,-2.2707,41.662526,-91.537992, 0.0000, 87.1665, 197.260361, 5.0, 4.0,Automotive,Low, 98.6370,-10.2284, 18.2876, 21.1284,-276.9356, 0.0000, 0.0000, 0.0000
24-May-2019 18:11:30.410, 0.0119,-0.0230,-1.0146,-0.0043,-0.0280,-0.0119,-0.0160, 0.0286,-0.0096, 0.0023,-0.0002,-2.2707,41.662526,-91.537992, 0.0000, 87.1665, 197.260361, 5.0, 4.0,Automotive,Low, 98.6370,-10.2284, 18.4652, 19.8856,-278.7920, 0.0000, 0.0000, 0.0000
24-May-2019 18:11:30.449, 0.0007,-0.0257,-1.0094,-0.0093,-0.0350,-0.0155,-0.0128, 0.0286,-0.0096, 0.0022, 0.0025,-2.2706,41.662526,-91.537992, 0.0000, 87.1665, 197.260361, 5.0, 4.0,Automotive,Low, 98.6370,-10.2284, 19.1754, 19.5305,-278.7920, 0.0000, 0.0000, 0.0000
24-May-2019 18:11:30.487,-0.0058,-0.0431,-1.0127,-0.0117,-0.0374,-0.0109,-0.0118, 0.0297,-0.0107, 0.0020, 0.0054,-2.2706,41.662526,-91.537992, 0.0000, 87.1665, 197.260361, 5.0, 4.0,Automotive,Low, 98.6370,-10.2284, 18.4652, 18.8203,-277.4419, 0.0000, 0.0000, 0.0000
24-May-2019 18:11:30.528, 0.0002,-0.0560,-1.0107,-0.0080,-0.0292,-0.0150,-0.0128, 0.0297,-0.0118, 0.0017, 0.0087,-2.2706,41.662526,-91.537992, 0.0000, 87.1665, 197.260361, 5.0, 4.0,Automotive,High, 98.6370,-10.2284, 17.3999, 19.8856,-276.4294, 0.0000, 0.0000, 0.0000
24-May-2019 18:11:30.574, 0.0173,-0.0545,-0.9965,-0.0163,-0.0543,-0.0327,-0.0128, 0.0233,-0.0107, 0.0011, 0.0131,-2.2705,41.662526,-91.537992, 0.0000, 87.1665, 197.260361, 5.0, 4.0,Automotive,High, 98.6370,-10.2284, 18.2876, 19.7080,-276.9356, 0.0000, 0.0000, 0.0000
24-May-2019 18:11:30.606, 0.0051,-0.0810,-1.0123,-0.0318,-0.0630,-0.0199, 0.0053, 0.0297,-0.0149, 0.0003, 0.0159,-2.2705,41.662526,-91.537992, 0.0000, 87.1665, 197.260361, 5.0, 4.0,Automotive,High, 98.6370,-10.2284, 19.3529, 20.0631,-277.6107, 0.0000, 0.0000, 0.0000
24-May-2019 18:11:30.644,-0.0115,-0.0874,-1.0077,-0.0168,-0.0630,-0.0162,-0.0086, 0.0350,-0.0107, 0.0005, 0.0204,-2.2704,41.662526,-91.537992, 0.0000, 87.1665, 197.260361, 5.0, 4.0,Automotive,High, 98.6370,-10.2284, 19.3529, 20.0631,-277.6107, 0.0000, 0.0000, 0.0000
24-May-2019 18:11:30.681,-0.0108,-0.0928,-1.0098,-0.0092,-0.0661,-0.0173,-0.0054, 0.0297,-0.0085,-0.0000, 0.0241,-2.2703,41.662526,-91.537992, 0.0000, 87.1665, 197.260361, 5.0, 4.0,Automotive,High, 98.6370,-10.2284, 19.1754, 18.8203,-277.4419, 0.0000, 0.0000, 0.0000
24-May-2019 18:11:30.720,-0.0099,-0.1063,-1.0175,-0.0040,-0.0634,-0.0122,-0.0011, 0.0308,-0.0096, 0.0001, 0.0294,-2.2703,41.662526,-91.537992, 0.0000, 87.1665, 197.260361, 5.0, 4.0,Automotive,High, 98.6370,-10.2284, 19.3529, 20.4182,-278.6232, 0.0000, 0.0000, 0.0000
24-May-2019 18:11:30.764,-0.0108,-0.1143,-1.0167,-0.0032,-0.0825,-0.0212,-0.0043, 0.0286,-0.0085,-0.0004, 0.0357,-2.2702,41.662526,-91.537992, 0.0000, 87.1665, 197.260361, 5.0, 4.0,Automotive,High, 98.6370,-10.2284, 17.9325, 19.7080,-278.2857, 0.0000, 0.0000, 0.0000
24-May-2019 18:11:30.798,-0.0049,-0.1246,-1.0205,-0.0044,-0.0912,-0.0215, 0.0043, 0.0287,-0.0128,-0.0006, 0.0399,-2.2702,41.662526,-91.537992, 0.0000, 87.1665, 197.260361, 5.0, 4.0,Automotive,High, 98.6370,-10.2284, 19.1754, 20.2407,-277.7794, 0.0000, 0.0000, 0.0000
24-May-2019 18:11:30.836,-0.0027,-0.1353,-1.0193, 0.0014,-0.0990,-0.0233,-0.0000, 0.0308,-0.0085,-0.0008, 0.0472,-2.2701,41.662526,-91.537992, 0.0000, 87.1665, 197.260361, 5.0, 4.0,Automotive,High, 98.6372,-10.2416, 18.6427, 20.4182,-277.9482, 0.0000, 0.0000, 0.0000
24-May-2019 18:11:30.874,-0.0025,-0.1500,-1.0188,-0.0001,-0.1042,-0.0257,-0.0011, 0.0297,-0.0096,-0.0011, 0.0542,-2.2701,41.662526,-91.537992, 0.0000, 87.1665, 197.260361, 5.0, 4.0,Automotive,High, 98.6372,-10.2416, 18.6427, 20.4182,-277.2732, 0.0000, 0.0000, 0.0000
24-May-2019 18:11:30.914,-0.0045,-0.1658,-1.0256,-0.0076,-0.1014,-0.0182,-0.0032, 0.0297,-0.0096,-0.0015, 0.0617,-2.2700,41.662526,-91.537992, 0.0000, 87.1665, 197.260361, 5.0, 4.0,Automotive,High, 98.6372,-10.2416, 18.9978, 21.4835,-277.9482, 0.0000, 0.0000, 0.0000
24-May-2019 18:11:30.952,-0.0086,-0.1778,-1.0255,-0.0007,-0.1079,-0.0253, 0.0032, 0.0318,-0.0096,-0.0019, 0.0717,-2.2699,41.662526,-91.537992, 0.0000, 87.1665, 197.260361, 5.0, 4.0,Automotive,High, 98.6372,-10.2416, 18.6427, 20.7733,-277.9482, 0.0000, 0.0000, 0.0000
24-May-2019 18:11:30.995,-0.0051,-0.1965,-1.0251,-0.0085,-0.1125,-0.0223,-0.0054, 0.0308,-0.0085,-0.0022, 0.0795,-2.2698,41.662526,-91.537992, 0.0000, 87.1665, 197.260361, 5.0, 4.0,Automotive,High, 98.6372,-10.2416, 17.0448, 19.8856,-278.4545, 0.0000, 0.0000, 0.0000
24-May-2019 18:11:31.030,-0.0159,-0.2140,-1.0298,-0.0026,-0.1121,-0.0155,-0.0032, 0.0297,-0.0117,-0.0025, 0.0875,-2.2698,41.662526,-91.537992, 0.0000, 87.1665, 197.260361, 5.0, 4.0,Automotive,High, 98.6372,-10.2416, 19.7080, 18.6427,-277.9482, 0.0000, 0.0000, 0.0000
24-May-2019 18:11:31.068,-0.0137,-0.2100,-1.0148,-0.0020,-0.1159,-0.0246,-0.0011, 0.0339,-0.0117,-0.0030, 0.0980,-2.2697,41.662526,-91.537992, 0.0000, 87.1665, 197.260361, 5.0, 4.0,Automotive,High, 98.6372,-10.2416, 18.6427, 19.3529,-277.2732, 0.0000, 0.0000, 0.0000
24-May-2019 18:11:31.107,-0.0036,-0.2191,-1.0173,-0.0042,-0.1183,-0.0210,-0.0086, 0.0308,-0.0107,-0.0035, 0.1080,-2.2696,41.662532,-91.537982, 0.6000, 87.1665, 197.250458, 5.0, 4.0,Automotive,High, 98.6372,-10.2416, 19.5305, 19.1754,-277.7794, 0.0000, 0.0000, 0.0000
24-May-2019 18:11:31.145, 0.0031,-0.1988,-1.0394, 0.0024,-0.1103,-0.0218,-0.0128, 0.0339,-0.0139,-0.0039, 0.1175,-2.2695,41.662532,-91.537982, 0.6000, 87.1665, 197.250458, 5.0, 4.0,Automotive,High, 98.6372,-10.2416, 19.5305, 19.8856,-278.1170, 0.0000, 0.0000, 0.0000
24-May-2019 18:11:31.186, 0.0026,-0.2184,-1.0064,-0.0027,-0.1239,-0.0341, 0.0032, 0.0340,-0.0203,-0.0045, 0.1257,-2.2695,41.662532,-91.537982, 0.6000, 87.1665, 197.250458, 5.0, 4.0,Automotive,High, 98.6372,-10.2416, 17.9325, 18.9978,-278.2857, 0.0000, 0.0000, 0.0000
24-May-2019 18:11:31.226,-0.0316,-0.2608,-1.0450,-0.0197,-0.0868,-0.0070,-0.0150, 0.0329,-0.0128,-0.0045, 0.1315,-2.2695,41.662532,-91.537982, 0.6000, 87.1665, 197.250458, 5.0, 4.0,Automotive,High, 98.6372,-10.2416, 17.9325, 17.9325,-276.2606, 0.0000, 0.0000, 0.0000
24-May-2019 18:11:31.264,-0.0308,-0.2224,-1.0119,-0.0351,-0.0975,-0.0047,-0.0075, 0.0350,-0.0160,-0.0044, 0.1362,-2.2697,41.662532,-91.537982, 0.6000, 87.1665, 197.250458, 5.0, 4.0,Automotive,High, 98.6372,-10.2416, 18.4652, 22.7264,-278.7920, 0.0000, 0.0000, 0.0000
24-May-2019 18:11:31.307,-0.0119,-0.2491,-1.0308,-0.0107,-0.0998,-0.0192,-0.0011, 0.0371,-0.0192,-0.0044, 0.1411,-2.2699,41.662532,-91.537982, 0.6000, 87.1665, 197.250458, 5.0, 4.0,Automotive,High, 98.6372,-10.2416, 18.8203, 19.5305,-279.1295, 0.0000, 0.0000, 0.0000
24-May-2019 18:11:31.347,-0.0085,-0.2593,-1.0300,-0.0208,-0.0922,-0.0005,-0.0107, 0.0393,-0.0214,-0.0044, 0.1438,-2.2702,41.662532,-91.537982, 0.6000, 87.1665, 197.250458, 5.0, 4.0,Automotive,High, 98.6372,-10.2416, 18.1101, 18.4652,-279.1295, 0.0000, 0.0000, 0.0000
24-May-2019 18:11:31.384,-0.0274,-0.2451,-1.0006,-0.0180,-0.1055,-0.0339,-0.0182, 0.0244,-0.0161,-0.0047, 0.1465,-2.2705,41.662532,-91.537982, 0.6000, 87.1665, 197.250458, 5.0, 4.0,Automotive,High, 98.6372,-10.2416, 20.5958, 19.8856,-278.4545, 0.0000, 0.0000, 0.0000
24-May-2019 18:11:31.428,-0.0151,-0.2626,-1.0245,-0.0034,-0.0917,-0.0112, 0.0021, 0.0319,-0.0224,-0.0053, 0.1519,-2.2707,41.662532,-91.537982, 0.6000, 87.1665, 197.250458, 5.0, 4.0,Automotive,High, 98.6372,-10.2416, 19.1754, 20.2407,-278.1170, 0.0000, 0.0000, 0.0000
24-May-2019 18:11:31.460,-0.0014,-0.2397,-0.9890,-0.0031,-0.1120,-0.0493, 0.0021, 0.0319,-0.0224,-0.0048, 0.1549,-2.2710,41.662532,-91.537982, 0.6000, 87.1665, 197.250458, 5.0, 4.0,Automotive,High, 98.6372,-10.2416, 19.1754, 19.5305,-278.4545, 0.0000, 0.0000, 0.0000
24-May-2019 18:11:31.497, 0.0295,-0.2571,-1.0726, 0.0017,-0.0778,-0.0282,-0.0342, 0.0392,-0.0140,-0.0049, 0.1620,-2.2711,41.662532,-91.537982, 0.6000, 87.1665, 197.250458, 5.0, 4.0,Automotive,High, 98.6372,-10.2416, 18.9978, 18.2876,-278.9608, 0.0000, 0.0000, 0.0000
24-May-2019 18:11:31.535,-0.0230,-0.2353,-1.0078, 0.0179,-0.0816,-0.0380, 0.0107, 0.0223,-0.0224,-0.0036, 0.1687,-2.2715,41.662532,-91.537982, 0.6000, 87.1665, 197.250458, 5.0, 4.0,Automotive,High, 98.6372,-10.2416, 19.8856, 18.8203,-279.8046, 0.0000, 0.0000, 0.0000
24-May-2019 18:11:31.573,-0.0141,-0.2325,-1.0104, 0.0149,-0.0847,-0.0462,-0.0256, 0.0445,-0.0139,-0.0032, 0.1724,-2.2717,41.662532,-91.537982, 0.6000, 87.1665, 197.250458, 5.0, 4.0,Automotive,High, 98.6372,-10.2416, 18.2876, 20.4182,-279.2983, 0.0000, 0.0000, 0.0000
24-May-2019 18:11:31.619,-0.0089,-0.2533,-1.0509, 0.0227,-0.0684,-0.0253,-0.0107, 0.0350,-0.0171,-0.0028, 0.1762,-2.2721,41.662532,-91.537982, 0.6000, 87.1665, 197.250458, 5.0, 4.0,Automotive,High, 98.6372,-10.2416, 18.4652, 18.4652,-279.1295, 0.0000, 0.0000, 0.0000
