Timestamp,accelX(g),accelY(g),accelZ(g),accelUserX(g),accelUserY(g),accelUserZ(g),gyroX(rad/s),gyroY(rad/s),gyroZ(rad/s),Roll(rads),Pitch(rads),Yaw(rads),Lat,Long,Speed(m/s),TrueHeading,Alt(m), HorizontalAccuracy(m), VerticalAccuracy(m),ActivityType,ActivityConfidence,Pressure(kilopascals),RelativeAltitude(meters),magX(µT),magY(µT),magZ(µT),calMagX,calMagY,calMagZ
24-May-2019 18:08:41.022, 0.0110, 0.0135,-1.0334, 0.0100,-0.0020,-0.0038,-0.0267, 0.0382,-0.0075, 0.0024,-0.0144,-2.2314,41.662512,-91.538007, 0.0000, 89.9506, 201.457077, 5.0, 4.0,Automotive,High, 98.6444,-10.8573, 16.6897, 19.8856,-279.1295, 0.0000, 0.0000, 0.0000
24-May-2019 18:08:41.043, 0.0098, 0.0072,-1.0011,-0.0095,-0.0051,-0.0168,-0.0214, 0.0371,-0.0043, 0.0022,-0.0143,-2.2314,41.662512,-91.538007, 0.0000, 89.9506, 201.457077, 5.0, 4.0,Automotive,High, 98.6444,-10.8573, 15.6244, 19.1754,-278.7920, 0.0000, 0.0000, 0.0000
24-May-2019 18:08:41.079, 0.0090, 0.0098,-1.0165,-0.0056, 0.0018,-0.0171,-0.0107, 0.0202,-0.0160, 0.0021,-0.0143,-2.2315,41.662512,-91.538007, 0.0000, 89.9506, 201.457077, 5.0, 4.0,Automotive,High, 98.6444,-10.8573, 17.9325, 18.9978,-278.6232, 0.0000, 0.0000, 0.0000
24-May-2019 18:08:41.123, 0.0063, 0.0189,-1.0161,-0.0076,-0.0022,-0.0028,-0.0192, 0.0350,-0.0064, 0.0023,-0.0143,-2.2315,41.662512,-91.538007, 0.0000, 89.9506, 201.457077, 5.0, 4.0,Automotive,High, 98.6444,-10.8573, 17.5774, 18.9978,-277.9482, 0.0000, 0.0000, 0.0000
24-May-2019 18:08:41.161, 0.0008, 0.0107,-1.0107,-0.0099, 0.0032,-0.0218,-0.0118, 0.0255,-0.0150, 0.0021,-0.0144,-2.2315,41.662512,-91.538007, 0.0000, 89.9506, 201.457077, 5.0, 4.0,Automotive,High, 98.6444,-10.8573, 15.2693, 19.1754,-278.4545, 0.0000, 0.0000, 0.0000
24-May-2019 18:08:41.197, 0.0010, 0.0177,-1.0207,-0.0106,-0.0008,-0.0063,-0.0118, 0.0255,-0.0150, 0.0020,-0.0144,-2.2315,41.662512,-91.538007, 0.0000, 89.9506, 201.404114, 5.0, 4.0,Automotive,High, 98.6444,-10.8573, 16.8672, 20.4182,-278.2857, 0.0000, 0.0000, 0.0000
24-May-2019 18:08:41.241, 0.0005, 0.0151,-1.0084,-0.0094,-0.0034,-0.0161,-0.0171, 0.0329,-0.0086, 0.0020,-0.0145,-2.2315,41.662512,-91.538007, 0.0000, 89.9506, 201.404114, 5.0, 4.0,Automotive,High, 98.6444,-10.8573, 17.9325, 18.2876,-278.2857, 0.0000, 0.0000, 0.0000
24-May-2019 18:08:41.275,-0.0014, 0.0159,-1.0185,-0.0093, 0.0015,-0.0127,-0.0139, 0.0350,-0.0107, 0.0022,-0.0145,-2.2316,41.662512,-91.538007, 0.0000, 89.9506, 201.404114, 5.0, 4.0,Automotive,High, 98.6444,-10.8573, 16.5121, 19.3529,-279.2983, 0.0000, 0.0000, 0.0000
24-May-2019 18:08:41.315, 0.0008, 0.0162,-1.0115,-0.0099,-0.0036,-0.0108,-0.0139, 0.0350,-0.0107, 0.0021,-0.0145,-2.2316,41.662512,-91.538007, 0.0000, 89.9506, 201.404114, 5.0, 4.0,Automotive,High, 98.6444,-10.8573, 16.8672, 17.9325,-277.6107, 0.0000, 0.0000, 0.0000
24-May-2019 18:08:41.353, 0.0012, 0.0140,-1.0089,-0.0064,-0.0004,-0.0136,-0.0139, 0.0297,-0.0139, 0.0024,-0.0145,-2.2316,41.662512,-91.538007, 0.0000, 89.9506, 201.404114, 5.0, 4.0,Automotive,High, 98.6444,-10.8573, 16.8672, 18.2876,-279.9733, 0.0000, 0.0000, 0.0000
24-May-2019 18:08:41.391,-0.0023, 0.0140,-1.0164,-0.0068,-0.0021,-0.0066,-0.0128, 0.0297,-0.0128, 0.0023,-0.0143,-2.2316,41.662512,-91.538007, 0.0000, 89.9506, 201.404114, 5.0, 4.0,Automotive,High, 98.6444,-10.8573, 18.2876, 19.7080,-278.9608, 0.0000, 0.0000, 0.0000
24-May-2019 18:08:41.430,-0.0040, 0.0133,-1.0097, 0.0098, 0.0005,-0.0144,-0.0128, 0.0297,-0.0128, 0.0024,-0.0143,-2.2316,41.662512,-91.538007, 0.0000, 89.9506, 201.404114, 5.0, 4.0,Automotive,High, 98.6444,-10.8573, 16.5121, 20.4182,-278.9608, 0.0000, 0.0000, 0.0000
24-May-2019 18:08:41.470,-0.0033, 0.0140,-1.0161,-0.0063, 0.0004,-0.0113,-0.0171, 0.0329,-0.0107, 0.0025,-0.0143,-2.2317,41.662512,-91.538007, 0.0000, 89.9506, 201.404114, 5.0, 4.0,Automotive,High, 98.6444,-10.8573, 16.3346, 19.8856,-279.4670, 0.0000, 0.0000, 0.0000
24-May-2019 18:08:41.511,-0.0043, 0.0155,-1.0108,-0.0046,-0.0008,-0.0158,-0.0128, 0.0308,-0.0128, 0.0024,-0.0143,-2.2317,41.662512,-91.538007, 0.0000, 89.9506, 201.404114, 5.0, 4.0,Automotive,High, 98.6444,-10.8573, 16.5121, 19.3529,-279.9733, 0.0000, 0.0000, 0.0000
24-May-2019 18:08:41.547,-0.0070, 0.0144,-1.0135,-0.0034, 0.0018,-0.0144,-0.0160, 0.0339,-0.0096, 0.0023,-0.0143,-2.2317,41.662512,-91.538007, 0.0000, 89.9506, 201.404114, 5.0, 4.0,Automotive,High, 98.6444,-10.8573, 16.1570, 19.7080,-278.9608, 0.0000, 0.0000, 0.0000
24-May-2019 18:08:41.589,-0.0064, 0.0146,-1.0114,-0.0086, 0.0002,-0.0115,-0.0139, 0.0308,-0.0107, 0.0022,-0.0144,-2.2317,41.662512,-91.538007, 0.0000, 89.9506, 201.404114, 5.0, 4.0,Automotive,High, 98.6444,-10.8573, 16.1570, 19.7080,-278.9608, 0.0000, 0.0000, 0.0000
24-May-2019 18:08:41.628,-0.0086, 0.0172,-1.0090,-0.0005, 0.0028,-0.0155,-0.0160, 0.0329,-0.0096, 0.0023,-0.0145,-2.2317,41.662512,-91.538007, 0.0000, 89.9506, 201.404114, 5.0, 4.0,Automotive,High, 98.6444,-10.8573, 16.6897, 19.1754,-277.4419, 0.0000, 0.0000, 0.0000
24-May-2019 18:08:41.673,-0.0105, 0.0123,-1.0144, 0.0032, 0.0018,-0.0141,-0.0150, 0.0329,-0.0107, 0.0022,-0.0145,-2.2317,41.662512,-91.538007, 0.0000, 89.9506, 201.404114, 5.0, 4.0,Automotive,High, 98.6444,-10.8573, 17.9325, 20.0631,-279.2983, 0.0000, 0.0000, 0.0000
24-May-2019 18:08:41.702,-0.0084, 0.0102,-1.0118, 0.0084, 0.0002,-0.0161,-0.0150, 0.0318,-0.0118, 0.0022,-0.0145,-2.2318,41.662512,-91.538007, 0.0000, 89.9506, 201.404114, 5.0, 4.0,Automotive,High, 98.6444,-10.8573, 16.8672, 19.3529,-278.9608, 0.0000, 0.0000, 0.0000
24-May-2019 18:08:41.740,-0.0039, 0.0109,-1.0148, 0.0056,-0.0007,-0.0137,-0.0171, 0.0329,-0.0118, 0.0024,-0.0145,-2.2318,41.662512,-91.538007, 0.0000, 89.9506, 201.404114, 5.0, 4.0,Automotive,High, 98.6444,-10.8573, 15.9795, 19.5305,-279.8046, 0.0000, 0.0000, 0.0000
24-May-2019 18:08:41.789,-0.0037, 0.0107,-1.0137, 0.0078, 0.0016,-0.0169,-0.0171, 0.0339,-0.0096, 0.0025,-0.0144,-2.2318,41.662512,-91.538007, 0.0000, 89.9506, 201.404114, 5.0, 4.0,Automotive,High, 98.6444,-10.8573, 17.2223, 18.2876,-278.9608, 0.0000, 0.0000, 0.0000
24-May-2019 18:08:41.817,-0.0023, 0.0126,-1.0108, 0.0079, 0.0015,-0.0170,-0.0139, 0.0318,-0.0118, 0.0027,-0.0144,-2.2318,41.662512,-91.538007, 0.0000, 89.9506, 201.404114, 5.0, 4.0,Automotive,High, 98.6444,-10.8573, 16.5121, 18.2876,-278.9608, 0.0000, 0.0000, 0.0000
24-May-2019 18:08:41.869, 0.0007, 0.0142,-1.0170, 0.0072,-0.0007,-0.0168,-0.0139, 0.0329,-0.0107, 0.0027,-0.0143,-2.2319,41.662512,-91.538007, 0.0000, 89.9506, 201.404114, 5.0, 4.0,Automotive,High, 98.6444,-10.8573, 15.9795, 19.5305,-278.1170, 0.0000, 0.0000, 0.0000
24-May-2019 18:08:41.899,-0.0016, 0.0157,-1.0131, 0.0079, 0.0031,-0.0152,-0.0160, 0.0297,-0.0096, 0.0029,-0.0143,-2.2319,41.662512,-91.538007, 0.0000, 89.9506, 201.404114, 5.0, 4.0,Automotive,High, 98.6444,-10.8573, 16.5121, 19.3529,-278.6232, 0.0000, 0.0000, 0.0000
24-May-2019 18:08:41.936,-0.0025, 0.0177,-1.0148, 0.0069, 0.0014,-0.0161,-0.0139, 0.0308,-0.0118, 0.0027,-0.0144,-2.2319,41.662512,-91.538007, 0.0000, 89.9506, 201.404114, 5.0, 4.0,Automotive,High, 98.6444,-10.8573, 17.2223, 18.2876,-279.2983, 0.0000, 0.0000, 0.0000
24-May-2019 18:08:41.976, 0.0002, 0.0147,-1.0177, 0.0034,-0.0002,-0.0161,-0.0171, 0.0329,-0.0107, 0.0025,-0.0145,-2.2319,41.662512,-91.538007, 0.0000, 89.9506, 201.404114, 5.0, 4.0,Automotive,High, 98.6444,-10.8573, 17.3999, 19.8856,-278.7920, 0.0000, 0.0000, 0.0000
24-May-2019 18:08:42.017, 0.0015, 0.0143,-1.0147, 0.0045,-0.0008,-0.0171,-0.0160, 0.0318,-0.0118, 0.0023,-0.0144,-2.2319,41.662512,-91.538007, 0.0000, 89.9506, 201.404114, 5.0, 4.0,Automotive,High, 98.6448,-10.8890, 17.0448, 19.8856,-279.4670, 0.0000, 0.0000, 0.0000
24-May-2019 18:08:42.051, 0.0056, 0.0148,-1.0143, 0.0053,-0.0009,-0.0150,-0.0150, 0.0329,-0.0107, 0.0022,-0.0143,-2.2319,41.662512,-91.538007, 0.0000, 89.9506, 201.404114, 5.0, 4.0,Automotive,High, 98.6448,-10.8890, 17.2223, 17.9325,-279.9733, 0.0000, 0.0000, 0.0000
24-May-2019 18:08:42.097, 0.0076, 0.0141,-1.0155, 0.0077,-0.0015,-0.0146,-0.0171, 0.0339,-0.0107, 0.0025,-0.0143,-2.2319,41.662512,-91.538007, 0.0000, 89.9506, 201.404114, 5.0, 4.0,Automotive,High, 98.6448,-10.8890, 16.6897, 18.8203,-279.8046, 0.0000, 0.0000, 0.0000
24-May-2019 18:08:42.131, 0.0110, 0.0160,-1.0160, 0.0059,-0.0010,-0.0168,-0.0139, 0.0318,-0.0096, 0.0027,-0.0142,-2.2319,41.662512,-91.538007, 0.0000, 89.9506, 201.404114, 5.0, 4.0,Automotive,High, 98.6448,-10.8890, 16.3346, 18.4652,-279.4670, 0.0000, 0.0000, 0.0000
24-May-2019 18:08:42.170, 0.0098, 0.0159,-1.0151, 0.0095,-0.0011,-0.0163,-0.0139, 0.0329,-0.0118, 0.0031,-0.0142,-2.2319,41.662512,-91.538007, 0.0000, 89.9506, 201.381454, 5.0, 4.0,Automotive,High, 98.6448,-10.8890, 16.6897, 18.8203,-279.8046, 0.0000, 0.0000, 0.0000
24-May-2019 18:08:42.206, 0.0066, 0.0156,-1.0178, 0.0071, 0.0014,-0.0144,-0.0160, 0.0329,-0.0118, 0.0031,-0.0143,-2.2320,41.662512,-91.538007, 0.0000, 89.9506, 201.381454, 5.0, 4.0,Automotive,High, 98.6448,-10.8890, 15.8019, 20.4182,-280.6484, 0.0000, 0.0000, 0.0000
24-May-2019 18:08:42.247, 0.0100, 0.0140,-1.0169, 0.0053, 0.0019,-0.0148,-0.0150, 0.0308,-0.0107, 0.0030,-0.0143,-2.2320,41.662512,-91.538007, 0.0000, 89.9506, 201.381454, 5.0, 4.0,Automotive,High, 98.6448,-10.8890, 17.2223, 21.1284,-279.9733, 0.0000, 0.0000, 0.0000
24-May-2019 18:08:42.284, 0.0076, 0.0134,-1.0174,-0.0113, 0.0001,-0.0111,-0.0139, 0.0339,-0.0107, 0.0029,-0.0143,-2.2320,41.662512,-91.538007, 0.0000, 89.9506, 201.381454, 5.0, 4.0,Automotive,High, 98.6448,-10.8890, 16.8672, 19.7080,-278.9608, 0.0000, 0.0000, 0.0000
24-May-2019 18:08:42.328, 0.0074, 0.0151,-1.0142, 0.0012,-0.0001,-0.0173,-0.0171, 0.0339,-0.0118, 0.0029,-0.0143,-2.2320,41.662512,-91.538007, 0.0000, 89.9506, 201.381454, 5.0, 4.0,Automotive,Low, 98.6448,-10.8890, 15.9795, 19.1754,-279.4670, 0.0000, 0.0000, 0.0000
24-May-2019 18:08:42.362, 0.0078, 0.0123,-1.0165, 0.0051,-0.0021,-0.0166,-0.0171, 0.0339,-0.0107, 0.0027,-0.0143,-2.2320,41.662512,-91.538007, 0.0000, 89.9506, 201.381454, 5.0, 4.0,Automotive,Low, 98.6448,-10.8890, 16.6897, 19.8856,-278.1170, 0.0000, 0.0000, 0.0000
24-May-2019 18:08:42.400, 0.0106, 0.0140,-1.0154, 0.0011,-0.0023,-0.0141,-0.0139, 0.0339,-0.0118, 0.0025,-0.0142,-2.2320,41.662512,-91.538007, 0.0000, 89.9506, 201.381454, 5.0, 4.0,Automotive,Low, 98.6448,-10.8890, 16.1570, 19.7080,-278.2857, 0.0000, 0.0000, 0.0000
24-May-2019 18:08:42.441, 0.0104, 0.0136,-1.0177,-0.0016,-0.0001,-0.0121,-0.0182, 0.0339,-0.0118, 0.0024,-0.0141,-2.2320,41.662512,-91.538007, 0.0000, 89.9506, 201.381454, 5.0, 4.0,Automotive,Low, 98.6448,-10.8890, 17.0448, 19.5305,-278.1170, 0.0000, 0.0000, 0.0000
24-May-2019 18:08:42.478, 0.0103, 0.0140,-1.0181,-0.0028,-0.0000,-0.0112,-0.0160, 0.0329,-0.0107, 0.0024,-0.0140,-2.2321,41.662512,-91.538007, 0.0000, 89.9506, 201.381454, 5.0, 4.0,Automotive,Low, 98.6448,-10.8890, 16.8672, 19.7080,-280.3109, 0.0000, 0.0000, 0.0000
24-May-2019 18:08:42.516, 0.0123, 0.0125,-1.0184,-0.0075, 0.0004,-0.0132,-0.0160, 0.0329,-0.0107, 0.0024,-0.0140,-2.2320,41.662512,-91.538007, 0.0000, 89.9506, 201.381454, 5.0, 4.0,Automotive,Low, 98.6448,-10.8890, 15.9795, 19.5305,-279.4670, 0.0000, 0.0000, 0.0000
24-May-2019 18:08:42.555, 0.0118, 0.0153,-1.0179,-0.0063,-0.0003,-0.0157,-0.0139, 0.0329,-0.0107, 0.0026,-0.0140,-2.2320,41.662512,-91.538007, 0.0000, 89.9506, 201.381454, 5.0, 4.0,Automotive,Low, 98.6448,-10.8890, 17.7550, 19.5305,-279.1295, 0.0000, 0.0000, 0.0000
24-May-2019 18:08:42.600, 0.0088, 0.0167,-1.0132,-0.0073, 0.0015,-0.0116,-0.0160, 0.0329,-0.0107, 0.0025,-0.0141,-2.2321,41.662512,-91.538007, 0.0000, 89.9506, 201.381454, 5.0, 4.0,Automotive,Low, 98.6448,-10.8890, 17.7550, 19.1754,-278.4545, 0.0000, 0.0000, 0.0000
24-May-2019 18:08:42.637, 0.0061, 0.0164,-1.0151,-0.0082,-0.0004,-0.0077,-0.0150, 0.0318,-0.0107, 0.0024,-0.0141,-2.2321,41.662512,-91.538007, 0.0000, 89.9506, 201.381454, 5.0, 4.0,Automotive,Low, 98.6448,-10.8890, 18.1101, 19.1754,-279.1295, 0.0000, 0.0000, 0.0000
24-May-2019 18:08:42.672, 0.0038, 0.0161,-1.0147,-0.0107, 0.0002,-0.0099,-0.0150, 0.0318,-0.0107, 0.0021,-0.0142,-2.2321,41.662512,-91.538007, 0.0000, 89.9506, 201.381454, 5.0, 4.0,Automotive,Low, 98.6448,-10.8890, 18.1101, 19.1754,-279.1295, 0.0000, 0.0000, 0.0000
24-May-2019 18:08:42.711, 0.0024, 0.0156,-1.0138,-0.0124,-0.0008,-0.0130,-0.0171, 0.0308,-0.0086, 0.0019,-0.0142,-2.2321,41.662512,-91.538007, 0.0000, 89.9506, 201.381454, 5.0, 4.0,Automotive,Low, 98.6448,-10.8890, 16.5121, 20.7733,-279.2983, 0.0000, 0.0000, 0.0000
24-May-2019 18:08:42.750,-0.0013, 0.0135,-1.0152, 0.0013, 0.0009,-0.0155,-0.0150, 0.0318,-0.0107, 0.0022,-0.0142,-2.2321,41.662512,-91.538007, 0.0000, 89.9506, 201.381454, 5.0, 4.0,Automotive,Low, 98.6448,-10.8890, 17.5774, 19.3529,-279.2983, 0.0000, 0.0000, 0.0000
24-May-2019 18:08:42.787,-0.0014, 0.0125,-1.0120,-0.0100,-0.0023,-0.0137,-0.0160, 0.0339,-0.0096, 0.0021,-0.0141,-2.2321,41.662512,-91.538007, 0.0000, 89.9506, 201.381454, 5.0, 4.0,Automotive,Low, 98.6448,-10.8890, 16.8672, 20.7733,-280.9859, 0.0000, 0.0000, 0.0000
24-May-2019 18:08:42.832,-0.0011, 0.0130,-1.0102,-0.0079,-0.0011,-0.0149,-0.0171, 0.0339,-0.0096, 0.0021,-0.0140,-2.2321,41.662512,-91.538007, 0.0000, 89.9506, 201.381454, 5.0, 4.0,Automotive,Low, 98.6448,-10.8890, 15.4468, 18.9978,-279.6358, 0.0000, 0.0000, 0.0000
24-May-2019 18:08:42.873,-0.0038, 0.0168,-1.0117,-0.0058,-0.0027,-0.0133,-0.0150, 0.0318,-0.0107, 0.0023,-0.0141,-2.2321,41.662512,-91.538007, 0.0000, 89.9506, 201.381454, 5.0, 4.0,Automotive,Low, 98.6448,-10.8890, 17.5774, 20.0631,-277.2732, 0.0000, 0.0000, 0.0000
24-May-2019 18:08:42.905,-0.0047, 0.0146,-1.0116,-0.0055, 0.0013,-0.0118,-0.0139, 0.0318,-0.0118, 0.0022,-0.0142,-2.2322,41.662512,-91.538007, 0.0000, 89.9506, 201.381454, 5.0, 4.0,Automotive,Low, 98.6448,-10.8890, 17.5774, 20.4182,-279.6358, 0.0000, 0.0000, 0.0000
24-May-2019 18:08:42.943,-0.0027, 0.0134,-1.0132,-0.0040, 0.0007,-0.0128,-0.0182, 0.0329,-0.0107, 0.0022,-0.0142,-2.2322,41.662512,-91.538007, 0.0000, 89.9506, 201.381454, 5.0, 4.0,Automotive,Low, 98.6448,-10.8890, 18.1101, 19.1754,-279.8046, 0.0000, 0.0000, 0.0000
24-May-2019 18:08:42.981,-0.0083, 0.0137,-1.0117,-0.0046, 0.0017,-0.0156,-0.0150, 0.0329,-0.0096, 0.0021,-0.0143,-2.2322,41.662512,-91.538007, 0.0000, 89.9506, 201.381454, 5.0, 4.0,Automotive,Low, 98.6448,-10.8890, 17.0448, 19.8856,-277.4419, 0.0000, 0.0000, 0.0000
24-May-2019 18:08:43.020,-0.0079, 0.0120,-1.0138, 0.0112, 0.0019,-0.0175,-0.0160, 0.0339,-0.0118, 0.0023,-0.0143,-2.2322,41.662512,-91.538007, 0.0000, 89.9506, 201.381454, 5.0, 4.0,Automotive,Low, 98.6450,-10.9048, 16.6897, 20.2407,-280.4796, 0.0000, 0.0000, 0.0000
24-May-2019 18:08:43.063,-0.0073, 0.0121,-1.0130,-0.0023, 0.0007,-0.0147,-0.0160, 0.0329,-0.0107, 0.0022,-0.0144,-2.2322,41.662512,-91.538007, 0.0000, 89.9506, 201.381454, 5.0, 4.0,Automotive,Low, 98.6450,-10.9048, 17.5774, 19.7080,-278.9608, 0.0000, 0.0000, 0.0000
24-May-2019 18:08:43.108,-0.0072, 0.0154,-1.0125,-0.0003,-0.0012,-0.0128,-0.0171, 0.0318,-0.0118, 0.0022,-0.0143,-2.2322,41.662512,-91.538007, 0.0000, 88.9334, 201.381454, 5.0, 4.0,Automotive,Low, 98.6450,-10.9048, 15.2693, 19.5305,-279.1295, 0.0000, 0.0000, 0.0000
24-May-2019 18:08:43.137,-0.0073, 0.0139,-1.0137, 0.0036,-0.0003,-0.0143,-0.0171, 0.0329,-0.0118, 0.0024,-0.0143,-2.2322,41.662512,-91.538007, 0.0000, 88.9334, 201.307465, 5.0, 3.0,Automotive,Low, 98.6450,-10.9048, 16.6897, 20.5958,-278.4545, 0.0000, 0.0000, 0.0000
24-May-2019 18:08:43.176,-0.0088, 0.0140,-1.0148, 0.0044, 0.0018,-0.0140,-0.0150, 0.0329,-0.0107, 0.0023,-0.0143,-2.2323,41.662512,-91.538007, 0.0000, 88.9334, 201.307465, 5.0, 3.0,Automotive,Low, 98.6450,-10.9048, 15.8019, 18.9978,-278.6232, 0.0000, 0.0000, 0.0000
24-May-2019 18:08:43.214,-0.0061, 0.0126,-1.0148, 0.0096, 0.0007,-0.0172,-0.0182, 0.0318,-0.0086, 0.0025,-0.0143,-2.2323,41.662512,-91.538007, 0.0000, 88.9334, 201.307465, 5.0, 3.0,Automotive,Low, 98.6450,-10.9048, 15.2693, 19.8856,-279.1295, 0.0000, 0.0000, 0.0000
24-May-2019 18:08:43.253,-0.0037, 0.0134,-1.0115, 0.0055, 0.0013,-0.0166,-0.0150, 0.0318,-0.0096, 0.0023,-0.0143,-2.2323,41.662512,-91.538007, 0.0000, 88.9334, 201.307465, 5.0, 3.0,Automotive,Low, 98.6450,-10.9048, 17.3999, 19.1754,-280.4796, 0.0000, 0.0000, 0.0000
24-May-2019 18:08:43.293,-0.0027, 0.0155,-1.0119, 0.0102, 0.0004,-0.0175,-0.0171, 0.0339,-0.0107, 0.0024,-0.0143,-2.2323,41.662512,-91.538007, 0.0000, 88.9334, 201.307465, 5.0, 3.0,Automotive,Low, 98.6450,-10.9048, 17.0448, 19.8856,-279.4670, 0.0000, 0.0000, 0.0000
24-May-2019 18:08:43.331, 0.0008, 0.0168,-1.0131, 0.0099, 0.0003,-0.0184,-0.0150, 0.0318,-0.0096, 0.0022,-0.0144,-2.2323,41.662512,-91.538007, 0.0000, 88.9334, 201.307465, 5.0, 3.0,Automotive,Low, 98.6450,-10.9048, 16.5121, 20.4182,-278.2857, 0.0000, 0.0000, 0.0000
24-May-2019 18:08:43.379, 0.0006, 0.0152,-1.0151, 0.0127, 0.0012,-0.0169,-0.0160, 0.0318,-0.0096, 0.0024,-0.0144,-2.2323,41.662512,-91.538007, 0.0000, 88.9334, 201.307465, 5.0, 3.0,Automotive,Low, 98.6450,-10.9048, 17.0448, 20.2407,-278.7920, 0.0000, 0.0000, 0.0000
24-May-2019 18:08:43.409, 0.0016, 0.0166,-1.0130, 0.0020,-0.0009,-0.0129,-0.0171, 0.0318,-0.0096, 0.0022,-0.0144,-2.2323,41.662512,-91.538007, 0.0000, 88.9334, 201.307465, 5.0, 3.0,Automotive,Low, 98.6450,-10.9048, 15.8019, 20.4182,-278.6232, 0.0000, 0.0000, 0.0000
24-May-2019 18:08:43.446, 0.0020, 0.0146,-1.0158, 0.0089, 0.0026,-0.0151,-0.0150, 0.0318,-0.0096, 0.0021,-0.0144,-2.2323,41.662512,-91.538007, 0.0000, 88.9334, 201.307465, 5.0, 3.0,Automotive,Low, 98.6450,-10.9048, 17.0448, 18.8203,-278.7920, 0.0000, 0.0000, 0.0000
24-May-2019 18:08:43.487, 0.0071, 0.0177,-1.0175, 0.0060,-0.0014,-0.0188,-0.0150, 0.0318,-0.0118, 0.0020,-0.0144,-2.2323,41.662512,-91.538007, 0.0000, 88.9334, 201.307465, 5.0, 3.0,Automotive,Low, 98.6450,-10.9048, 17.7550, 20.2407,-278.4545, 0.0000, 0.0000, 0.0000
24-May-2019 18:08:43.524, 0.0099, 0.0170,-1.0172, 0.0058,-0.0002,-0.0173,-0.0171, 0.0329,-0.0107, 0.0020,-0.0144,-2.2323,41.662512,-91.538007, 0.0000, 88.9334, 201.307465, 5.0, 3.0,Automotive,Low, 98.6450,-10.9048, 15.8019, 19.7080,-279.6358, 0.0000, 0.0000, 0.0000
24-May-2019 18:08:43.563, 0.0096, 0.0182,-1.0160, 0.0075, 0.0037,-0.0161,-0.0160, 0.0318,-0.0107, 0.0021,-0.0145,-2.2323,41.662512,-91.538007, 0.0000, 88.9334, 201.307465, 5.0, 3.0,Automotive,Low, 98.6450,-10.9048, 17.3999, 18.1101,-278.4545, 0.0000, 0.0000, 0.0000
24-May-2019 18:08:43.607, 0.0100, 0.0183,-1.0154, 0.0055,-0.0002,-0.0170,-0.0160, 0.0318,-0.0107, 0.0019,-0.0145,-2.2323,41.662512,-91.538007, 0.0000, 88.9334, 201.307465, 5.0, 3.0,Automotive,Low, 98.6450,-10.9048, 16.8672, 20.0631,-277.9482, 0.0000, 0.0000, 0.0000
24-May-2019 18:08:43.645, 0.0128, 0.0149,-1.0192, 0.0044,-0.0012,-0.0140,-0.0171, 0.0339,-0.0096, 0.0021,-0.0146,-2.2323,41.662512,-91.538007, 0.0000, 88.9334, 201.307465, 5.0, 3.0,Automotive,Low, 98.6450,-10.9048, 16.8672, 21.4835,-277.9482, 0.0000, 0.0000, 0.0000
24-May-2019 18:08:43.680, 0.0109, 0.0131,-1.0209,-0.0068,-0.0004,-0.0136,-0.0171, 0.0339,-0.0107, 0.0021,-0.0145,-2.2323,41.662512,-91.538007, 0.0000, 88.9334, 201.307465, 5.0, 3.0,Automotive,Low, 98.6450,-10.9048, 16.8672, 21.4835,-277.9482, 0.0000, 0.0000, 0.0000
24-May-2019 18:08:43.719, 0.0138, 0.0118,-1.0202,-0.0019, 0.0015,-0.0122,-0.0171, 0.0318,-0.0107, 0.0021,-0.0145,-2.2323,41.662512,-91.538007, 0.0000, 88.9334, 201.307465, 5.0, 3.0,Automotive,Low, 98.6450,-10.9048, 17.0448, 19.1754,-277.4419, 0.0000, 0.0000, 0.0000
24-May-2019 18:08:43.758, 0.0124, 0.0140,-1.0161,-0.0018, 0.0013,-0.0150,-0.0171, 0.0318,-0.0107, 0.0022,-0.0145,-2.2323,41.662512,-91.538007, 0.0000, 88.9334, 201.307465, 5.0, 3.0,Automotive,Low, 98.6450,-10.9048, 17.5774, 18.2876,-278.6232, 0.0000, 0.0000, 0.0000
24-May-2019 18:08:43.798, 0.0114, 0.0148,-1.0163,-0.0016,-0.0008,-0.0131,-0.0160, 0.0318,-0.0107, 0.0023,-0.0145,-2.2323,41.662512,-91.538007, 0.0000, 88.9334, 201.307465, 5.0, 3.0,Automotive,Low, 98.6450,-10.9048, 17.7550, 20.5958,-278.7920, 0.0000, 0.0000, 0.0000
24-May-2019 18:08:43.833, 0.0096, 0.0156,-1.0157,-0.0032,-0.0031,-0.0124,-0.0150, 0.0318,-0.0107, 0.0022,-0.0144,-2.2324,41.662512,-91.538007, 0.0000, 88.9334, 201.307465, 5.0, 3.0,Automotive,Low, 98.6450,-10.9048, 17.0448, 19.5305,-278.1170, 0.0000, 0.0000, 0.0000
24-May-2019 18:08:43.880, 0.0067, 0.0154,-1.0171,-0.0066, 0.0016,-0.0121,-0.0150, 0.0318,-0.0107, 0.0019,-0.0145,-2.2324,41.662512,-91.538007, 0.0000, 88.9334, 201.307465, 5.0, 3.0,Automotive,Low, 98.6450,-10.9048, 16.8672, 20.4182,-279.2983, 0.0000, 0.0000, 0.0000
24-May-2019 18:08:43.919, 0.0050, 0.0150,-1.0153,-0.0075, 0.0019,-0.0128,-0.0182, 0.0339,-0.0096, 0.0021,-0.0146,-2.2324,41.662512,-91.538007, 0.0000, 88.9334, 201.307465, 5.0, 3.0,Automotive,Low, 98.6450,-10.9048, 15.9795, 20.5958,-278.4545, 0.0000, 0.0000, 0.0000
24-May-2019 18:08:43.951, 0.0041, 0.0166,-1.0131,-0.0074, 0.0005,-0.0146,-0.0182, 0.0339,-0.0096, 0.0018,-0.0146,-2.2324,41.662512,-91.538007, 0.0000, 88.9334, 201.307465, 5.0, 3.0,Automotive,Low, 98.6450,-10.9048, 17.2223, 17.9325,-279.6358, 0.0000, 0.0000, 0.0000
24-May-2019 18:08:43.989, 0.0055, 0.0162,-1.0114,-0.0072,-0.0010,-0.0129,-0.0160, 0.0329,-0.0096, 0.0019,-0.0147,-2.2324,41.662512,-91.538007, 0.0000, 88.9334, 201.307465, 5.0, 3.0,Automotive,Low, 98.6450,-10.9048, 16.8672, 19.3529,-278.2857, 0.0000, 0.0000, 0.0000
24-May-2019 18:08:44.030, 0.0056, 0.0147,-1.0097,-0.0103,-0.0022,-0.0171,-0.0139, 0.0339,-0.0118, 0.0020,-0.0147,-2.2324,41.662512,-91.538007, 0.0000, 88.9334, 201.307465, 5.0, 3.0,Automotive,Low, 98.6450,-10.9048, 17.7550, 20.5958,-279.4670, 0.0000, 0.0000, 0.0000
24-May-2019 18:08:44.066, 0.0021, 0.0128,-1.0139,-0.0065,-0.0021,-0.0132,-0.0160, 0.0329,-0.0107, 0.0021,-0.0146,-2.2324,41.662512,-91.538007, 0.0000, 88.9334, 201.307465, 5.0, 3.0,Automotive,Low, 98.6450,-10.9048, 17.2223, 18.9978,-279.6358, 0.0000, 0.0000, 0.0000
24-May-2019 18:08:44.106, 0.0001, 0.0141,-1.0151, 0.0071, 0.0007,-0.0179,-0.0160, 0.0329,-0.0107, 0.0024,-0.0144,-2.2324,41.662512,-91.538007, 0.0000, 88.9334, 201.307465, 5.0, 3.0,Automotive,Low, 98.6450,-10.9048, 17.5774, 19.7080,-278.6232, 0.0000, 0.0000, 0.0000
24-May-2019 18:08:44.143, 0.0010, 0.0162,-1.0163, 0.0033, 0.0014,-0.0197,-0.0160, 0.0318,-0.0107, 0.0026,-0.0144,-2.2324,41.662512,-91.538007, 0.0000, 88.9334, 201.307465, 5.0, 3.0,Automotive,Low, 98.6450,-10.9048, 17.3999, 20.2407,-279.1295, 0.0000, 0.0000, 0.0000
24-May-2019 18:08:44.183,-0.0009, 0.0155,-1.0115,-0.0082,-0.0010,-0.0134,-0.0182, 0.0318,-0.0096, 0.0028,-0.0145,-2.2324,41.662512,-91.538007, 0.0000, 88.9334, 201.441376, 5.0, 4.0,Automotive,Low, 98.6450,-10.9048, 15.8019, 19.3529,-279.6358, 0.0000, 0.0000, 0.0000
24-May-2019 18:08:44.225,-0.0034, 0.0141,-1.0139,-0.0084, 0.0000,-0.0104,-0.0150, 0.0318,-0.0118, 0.0027,-0.0145,-2.2324,41.662512,-91.538007, 0.0000, 88.9334, 201.441376, 5.0, 4.0,Automotive,Low, 98.6450,-10.9048, 16.3346, 18.8203,-278.7920, 0.0000, 0.0000, 0.0000
24-May-2019 18:08:44.259,-0.0074, 0.0156,-1.0115,-0.0089, 0.0017,-0.0093,-0.0160, 0.0318,-0.0096, 0.0027,-0.0146,-2.2324,41.662512,-91.538007, 0.0000, 88.9334, 201.441376, 5.0, 4.0,Automotive,Low, 98.6450,-10.9048, 16.3346, 19.8856,-277.7794, 0.0000, 0.0000, 0.0000
24-May-2019 18:08:44.303,-0.0072, 0.0155,-1.0104,-0.0063,-0.0008,-0.0128,-0.0182, 0.0308,-0.0096, 0.0026,-0.0147,-2.2324,41.662512,-91.538007, 0.0000, 88.9334, 201.441376, 5.0, 4.0,Automotive,Low, 98.6450,-10.9048, 16.6897, 18.8203,-279.4670, 0.0000, 0.0000, 0.0000
24-May-2019 18:08:44.341,-0.0070, 0.0151,-1.0128,-0.0017, 0.0015,-0.0119,-0.0160, 0.0308,-0.0118, 0.0026,-0.0147,-2.2325,41.662512,-91.538007, 0.0000, 88.9334, 201.441376, 5.0, 4.0,Automotive,Low, 98.6450,-10.9048, 17.0448, 20.2407,-278.4545, 0.0000, 0.0000, 0.0000
24-May-2019 18:08:44.376,-0.0090, 0.0105,-1.0139,-0.0014,-0.0012,-0.0143,-0.0171, 0.0329,-0.0107, 0.0026,-0.0147,-2.2325,41.662512,-91.538007, 0.0000, 88.9334, 201.441376, 5.0, 4.0,Automotive,Low, 98.6450,-10.9048, 15.9795, 19.1754,-279.8046, 0.0000, 0.0000, 0.0000
24-May-2019 18:08:44.423,-0.0057, 0.0119,-1.0160, 0.0019,-0.0009,-0.0193,-0.0171, 0.0308,-0.0096, 0.0026,-0.0145,-2.2325,41.662512,-91.538007, 0.0000, 88.9334, 201.441376, 5.0, 4.0,Automotive,Low, 98.6450,-10.9048, 15.8019, 20.7733,-278.9608, 0.0000, 0.0000, 0.0000
24-May-2019 18:08:44.453,-0.0023, 0.0112,-1.0139, 0.0048, 0.0033,-0.0189,-0.0171, 0.0329,-0.0107, 0.0026,-0.0145,-2.2325,41.662512,-91.538007, 0.0000, 88.9334, 201.441376, 5.0, 4.0,Automotive,Low, 98.6450,-10.9048, 17.0448, 20.9509,-278.4545, 0.0000, 0.0000, 0.0000
24-May-2019 18:08:44.494,-0.0061, 0.0151,-1.0108, 0.0074, 0.0017,-0.0188,-0.0160, 0.0308,-0.0107, 0.0028,-0.0145,-2.2325,41.662512,-91.538007, 0.0000, 88.9334, 201.441376, 5.0, 4.0,Automotive,Low, 98.6450,-10.9048, 18.4652, 20.5958,-278.1170, 0.0000, 0.0000, 0.0000
24-May-2019 18:08:44.530,-0.0044, 0.0149,-1.0131, 0.0073, 0.0004,-0.0134,-0.0182, 0.0318,-0.0096, 0.0027,-0.0145,-2.2325,41.662512,-91.538007, 0.0000, 88.9334, 201.441376, 5.0, 4.0,Automotive,Low, 98.6450,-10.9048, 17.5774, 18.9978,-278.9608, 0.0000, 0.0000, 0.0000
24-May-2019 18:08:44.569,-0.0021, 0.0165,-1.0092, 0.0068, 0.0019,-0.0150,-0.0160, 0.0318,-0.0107, 0.0027,-0.0145,-2.2325,41.662512,-91.538007, 0.0000, 88.9334, 201.441376, 5.0, 4.0,Automotive,Low, 98.6450,-10.9048, 17.5774, 20.7733,-279.6358, 0.0000, 0.0000, 0.0000
24-May-2019 18:08:44.611,-0.0040, 0.0169,-1.0135,-0.0063, 0.0022,-0.0136,-0.0160, 0.0297,-0.0107, 0.0023,-0.0147,-2.2325,41.662512,-91.538007, 0.0000, 88.9334, 201.441376, 5.0, 4.0,Automotive,Low, 98.6450,-10.9048, 17.0448, 19.8856,-279.4670, 0.0000, 0.0000, 0.0000
24-May-2019 18:08:44.647,-0.0026, 0.0166,-1.0151, 0.0057, 0.0000,-0.0159,-0.0182, 0.0308,-0.0118, 0.0022,-0.0147,-2.2325,41.662512,-91.538007, 0.0000, 88.9334, 201.441376, 5.0, 4.0,Automotive,Low, 98.6450,-10.9048, 16.6897, 20.2407,-278.4545, 0.0000, 0.0000, 0.0000
24-May-2019 18:08:44.689, 0.0009, 0.0139,-1.0166,-0.0011,-0.0008,-0.0167,-0.0160, 0.0318,-0.0096, 0.0020,-0.0147,-2.2326,41.662512,-91.538007, 0.0000, 88.9334, 201.441376, 5.0, 4.0,Automotive,Low, 98.6450,-10.9048, 16.6897, 20.2407,-278.4545, 0.0000, 0.0000, 0.0000
24-May-2019 18:08:44.731, 0.0067, 0.0150,-1.0163, 0.0051,-0.0023,-0.0180,-0.0139, 0.0318,-0.0118, 0.0019,-0.0146,-2.2326,41.662512,-91.538007, 0.0000, 88.9334, 201.441376, 5.0, 4.0,Automotive,Low, 98.6450,-10.9048, 17.7550, 18.8203,-278.7920, 0.0000, 0.0000, 0.0000
24-May-2019 18:08:44.764, 0.0070, 0.0148,-1.0150, 0.0080,-0.0028,-0.0173,-0.0182, 0.0318,-0.0096, 0.0021,-0.0145,-2.2326,41.662512,-91.538007, 0.0000, 88.9334, 201.441376, 5.0, 4.0,Automotive,Low, 98.6450,-10.9048, 16.5121, 20.7733,-277.9482, 0.0000, 0.0000, 0.0000
24-May-2019 18:08:44.806, 0.0117, 0.0177,-1.0190, 0.0076,-0.0002,-0.0117,-0.0160, 0.0318,-0.0107, 0.0021,-0.0144,-2.2326,41.662512,-91.538007, 0.0000, 88.9334, 201.441376, 5.0, 4.0,Automotive,Low, 98.6450,-10.9048, 15.8019, 20.7733,-278.9608, 0.0000, 0.0000, 0.0000
24-May-2019 18:08:44.846, 0.0143, 0.0151,-1.0193, 0.0025,-0.0009,-0.0090,-0.0150, 0.0329,-0.0096, 0.0022,-0.0145,-2.2326,41.662512,-91.538007, 0.0000, 88.9334, 201.441376, 5.0, 4.0,Automotive,Low, 98.6450,-10.9048, 17.3999, 19.8856,-278.7920, 0.0000, 0.0000, 0.0000
24-May-2019 18:08:44.886, 0.0131, 0.0154,-1.0177, 0.0064, 0.0025,-0.0108,-0.0171, 0.0318,-0.0107, 0.0024,-0.0145,-2.2326,41.662512,-91.538007, 0.0000, 88.9334, 201.441376, 5.0, 4.0,Automotive,Low, 98.6450,-10.9048, 16.8672, 20.0631,-278.9608, 0.0000, 0.0000, 0.0000
24-May-2019 18:08:44.917, 0.0117, 0.0153,-1.0187, 0.0016, 0.0002,-0.0143,-0.0171, 0.0318,-0.0107, 0.0026,-0.0145,-2.2326,41.662512,-91.538007, 0.0000, 88.9334, 201.441376, 5.0, 4.0,Automotive,Low, 98.6450,-10.9048, 18.1101, 20.2407,-278.7920, 0.0000, 0.0000, 0.0000
24-May-2019 18:08:44.961, 0.0117, 0.0147,-1.0192, 0.0089, 0.0003,-0.0193,-0.0150, 0.0308,-0.0096, 0.0028,-0.0145,-2.2326,41.662512,-91.538007, 0.0000, 88.9334, 201.441376, 5.0, 4.0,Automotive,Low, 98.6450,-10.9048, 17.0448, 20.5958,-278.4545, 0.0000, 0.0000, 0.0000
24-May-2019 18:08:44.995, 0.0101, 0.0153,-1.0161, 0.0027,-0.0015,-0.0169,-0.0182, 0.0308,-0.0096, 0.0026,-0.0144,-2.2326,41.662512,-91.538007, 0.0000, 88.9334, 201.441376, 5.0, 4.0,Automotive,Low, 98.6450,-10.9048, 17.2223, 18.6427,-276.5981, 0.0000, 0.0000, 0.0000
24-May-2019 18:08:45.035, 0.0077, 0.0159,-1.0143, 0.0012, 0.0005,-0.0151,-0.0160, 0.0308,-0.0107, 0.0024,-0.0144,-2.2326,41.662512,-91.538007, 0.0000, 88.9334, 201.441376, 5.0, 4.0,Automotive,Low, 98.6447,-10.8811, 16.6897, 19.5305,-277.1044, 0.0000, 0.0000, 0.0000
24-May-2019 18:08:45.073, 0.0071, 0.0152,-1.0154,-0.0127,-0.0017,-0.0098,-0.0160, 0.0308,-0.0107, 0.0021,-0.0144,-2.2326,41.662512,-91.538007, 0.0000, 88.9334, 201.441376, 5.0, 4.0,Automotive,Low, 98.6447,-10.8811, 18.2876, 20.7733,-279.2983, 0.0000, 0.0000, 0.0000
24-May-2019 18:08:45.113, 0.0088, 0.0133,-1.0154,-0.0046, 0.0012,-0.0141,-0.0171, 0.0329,-0.0107, 0.0023,-0.0144,-2.2326,41.662512,-91.538007, 0.0000, 88.9334, 201.355225, 5.0, 4.0,Automotive,Low, 98.6447,-10.8811, 16.3346, 18.8203,-279.8046, 0.0000, 0.0000, 0.0000
24-May-2019 18:08:45.157, 0.0068, 0.0160,-1.0125,-0.0067, 0.0002,-0.0140,-0.0171, 0.0329,-0.0107, 0.0021,-0.0144,-2.2327,41.662512,-91.538007, 0.0000, 88.9334, 201.355225, 5.0, 4.0,Automotive,Low, 98.6447,-10.8811, 16.5121, 19.7080,-279.6358, 0.0000, 0.0000, 0.0000
24-May-2019 18:08:45.189, 0.0112, 0.0146,-1.0157,-0.0089, 0.0002,-0.0149,-0.0150, 0.0318,-0.0107, 0.0024,-0.0145,-2.2327,41.662512,-91.538007, 0.0000, 88.9334, 201.355225, 5.0, 4.0,Automotive,Low, 98.6447,-10.8811, 17.0448, 20.2407,-278.4545, 0.0000, 0.0000, 0.0000
24-May-2019 18:08:45.227, 0.0124, 0.0145,-1.0161,-0.0078,-0.0003,-0.0119,-0.0139, 0.0308,-0.0107, 0.0021,-0.0146,-2.2327,41.662512,-91.538007, 0.0000, 88.9334, 201.355225, 5.0, 4.0,Automotive,Low, 98.6447,-10.8811, 16.3346, 19.5305,-279.4670, 0.0000, 0.0000, 0.0000
24-May-2019 18:08:45.266, 0.0076, 0.0145,-1.0179,-0.0090,-0.0023,-0.0139,-0.0171, 0.0297,-0.0107, 0.0022,-0.0145,-2.2327,41.662512,-91.538007, 0.0000, 88.9334, 201.355225, 5.0, 4.0,Automotive,Low, 98.6447,-10.8811, 17.5774, 20.7733,-278.2857, 0.0000, 0.0000, 0.0000
24-May-2019 18:08:45.304, 0.0049, 0.0142,-1.0162,-0.0097, 0.0002,-0.0123,-0.0160, 0.0318,-0.0096, 0.0023,-0.0145,-2.2327,41.662512,-91.538007, 0.0000, 88.9334, 201.355225, 5.0, 4.0,Automotive,Low, 98.6447,-10.8811, 17.9325, 19.3529,-279.2983, 0.0000, 0.0000, 0.0000
24-May-2019 18:08:45.344, 0.0013, 0.0141,-1.0167, 0.0003,-0.0006,-0.0152,-0.0160, 0.0308,-0.0118, 0.0025,-0.0144,-2.2327,41.662512,-91.538007, 0.0000, 88.9334, 201.355225, 5.0, 4.0,Automotive,Low, 98.6447,-10.8811, 17.3999, 18.1101,-279.4670, 0.0000, 0.0000, 0.0000
24-May-2019 18:08:45.388, 0.0002, 0.0152,-1.0125,-0.0146,-0.0001,-0.0095,-0.0160, 0.0308,-0.0118, 0.0023,-0.0144,-2.2327,41.662512,-91.538007, 0.0000, 88.9334, 201.355225, 5.0, 4.0,Automotive,Low, 98.6447,-10.8811, 15.8019, 20.0631,-278.2857, 0.0000, 0.0000, 0.0000
24-May-2019 18:08:45.423,-0.0004, 0.0163,-1.0106,-0.0112, 0.0002,-0.0123,-0.0160, 0.0286,-0.0107, 0.0020,-0.0145,-2.2327,41.662512,-91.538007, 0.0000, 88.9334, 201.355225, 5.0, 4.0,Automotive,Low, 98.6447,-10.8811, 18.2876, 19.3529,-279.9733, 0.0000, 0.0000, 0.0000
24-May-2019 18:08:45.460,-0.0037, 0.0127,-1.0126,-0.0127,-0.0017,-0.0109,-0.0150, 0.0297,-0.0107, 0.0019,-0.0145,-2.2328,41.662512,-91.538007, 0.0000, 88.9334, 201.355225, 5.0, 4.0,Automotive,Low, 98.6447,-10.8811, 16.1570, 20.0631,-278.9608, 0.0000, 0.0000, 0.0000
24-May-2019 18:08:45.498,-0.0048, 0.0118,-1.0153,-0.0082,-0.0028,-0.0144,-0.0171, 0.0297,-0.0096, 0.0018,-0.0144,-2.2328,41.662512,-91.538007, 0.0000, 88.9334, 201.355225, 5.0, 4.0,Automotive,Low, 98.6447,-10.8811, 17.3999, 20.2407,-279.8046, 0.0000, 0.0000, 0.0000
24-May-2019 18:08:45.536,-0.0060, 0.0115,-1.0166,-0.0063, 0.0002,-0.0147,-0.0160, 0.0329,-0.0096, 0.0019,-0.0142,-2.2328,41.662512,-91.538007, 0.0000, 88.9334, 201.355225, 5.0, 4.0,Automotive,Low, 98.6447,-10.8811, 16.3346, 20.5958,-279.4670, 0.0000, 0.0000, 0.0000
24-May-2019 18:08:45.575,-0.0082, 0.0148,-1.0114,-0.0013, 0.0013,-0.0157,-0.0160, 0.0297,-0.0107, 0.0021,-0.0142,-2.2328,41.662512,-91.538007, 0.0000, 88.9334, 201.355225, 5.0, 4.0,Automotive,Low, 98.6447,-10.8811, 17.3999, 20.5958,-278.4545, 0.0000, 0.0000, 0.0000
24-May-2019 18:08:45.617,-0.0057, 0.0146,-1.0082, 0.0016, 0.0037,-0.0136,-0.0160, 0.0308,-0.0107, 0.0023,-0.0144,-2.2328,41.662512,-91.538007, 0.0000, 88.9334, 201.355225, 5.0, 4.0,Automotive,Low, 98.6447,-10.8811, 17.3999, 19.8856,-280.1421, 0.0000, 0.0000, 0.0000
24-May-2019 18:08:45.661,-0.0067, 0.0124,-1.0088, 0.0004, 0.0022,-0.0127,-0.0160, 0.0308,-0.0107, 0.0025,-0.0145,-2.2328,41.662512,-91.538007, 0.0000, 88.9334, 201.355225, 5.0, 4.0,Automotive,Low, 98.6447,-10.8811, 16.8672, 20.7733,-278.9608, 0.0000, 0.0000, 0.0000
24-May-2019 18:08:45.694,-0.0074, 0.0132,-1.0077, 0.0033, 0.0002,-0.0133,-0.0139, 0.0297,-0.0107, 0.0028,-0.0145,-2.2329,41.662512,-91.538007, 0.0000, 88.9334, 201.355225, 5.0, 4.0,Automotive,Low, 98.6447,-10.8811, 15.2693, 20.9509,-278.4545, 0.0000, 0.0000, 0.0000
24-May-2019 18:08:45.732,-0.0071, 0.0123,-1.0151, 0.0038,-0.0013,-0.0156,-0.0139, 0.0308,-0.0096, 0.0031,-0.0144,-2.2329,41.662512,-91.538007, 0.0000, 88.9334, 201.355225, 5.0, 4.0,Automotive,Low, 98.6447,-10.8811, 15.2693, 20.9509,-278.4545, 0.0000, 0.0000, 0.0000
24-May-2019 18:08:45.771,-0.0079, 0.0117,-1.0153, 0.0035,-0.0004,-0.0208,-0.0150, 0.0297,-0.0107, 0.0028,-0.0143,-2.2329,41.662512,-91.538007, 0.0000, 88.9334, 201.355225, 5.0, 4.0,Automotive,Low, 98.6447,-10.8811, 16.6897, 19.8856,-278.7920, 0.0000, 0.0000, 0.0000
24-May-2019 18:08:45.809,-0.0067, 0.0126,-1.0161, 0.0021,-0.0014,-0.0204,-0.0160, 0.0297,-0.0107, 0.0026,-0.0142,-2.2329,41.662512,-91.538007, 0.0000, 88.9334, 201.355225, 5.0, 4.0,Automotive,Low, 98.6447,-10.8811, 17.3999, 19.1754,-278.4545, 0.0000, 0.0000, 0.0000
24-May-2019 18:08:45.846,-0.0094, 0.0142,-1.0147, 0.0057, 0.0021,-0.0173,-0.0182, 0.0318,-0.0096, 0.0023,-0.0141,-2.2329,41.662512,-91.538007, 0.0000, 88.9334, 201.355225, 5.0, 4.0,Automotive,Low, 98.6447,-10.8811, 16.3346, 20.9509,-278.7920, 0.0000, 0.0000, 0.0000
24-May-2019 18:08:45.886,-0.0059, 0.0141,-1.0124, 0.0068, 0.0021,-0.0122,-0.0150, 0.0329,-0.0096, 0.0021,-0.0142,-2.2329,41.662512,-91.538007, 0.0000, 88.9334, 201.355225, 5.0, 4.0,Automotive,Low, 98.6447,-10.8811, 15.9795, 19.8856,-278.7920, 0.0000, 0.0000, 0.0000
24-May-2019 18:08:45.925, 0.0005, 0.0155,-1.0117, 0.0086, 0.0026,-0.0161,-0.0139, 0.0308,-0.0107, 0.0022,-0.0143,-2.2329,41.662512,-91.538007, 0.0000, 88.9334, 201.355225, 5.0, 4.0,Automotive,Low, 98.6447,-10.8811, 15.4468, 20.0631,-278.6232, 0.0000, 0.0000, 0.0000
24-May-2019 18:08:45.964, 0.0036, 0.0185,-1.0117, 0.0115, 0.0010,-0.0164,-0.0160, 0.0308,-0.0107, 0.0022,-0.0143,-2.2330,41.662512,-91.538007, 0.0000, 88.9334, 201.355225, 5.0, 4.0,Automotive,Low, 98.6447,-10.8811, 17.7550, 20.2407,-280.1421, 0.0000, 0.0000, 0.0000
24-May-2019 18:08:46.002, 0.0049, 0.0149,-1.0150, 0.0064, 0.0024,-0.0143,-0.0160, 0.0297,-0.0107, 0.0021,-0.0144,-2.2330,41.662512,-91.538007, 0.0000, 88.9334, 201.355225, 5.0, 4.0,Automotive,Low, 98.6447,-10.8811, 16.3346, 18.4652,-277.7794, 0.0000, 0.0000, 0.0000
24-May-2019 18:08:46.043, 0.0068, 0.0141,-1.0171, 0.0117,-0.0028,-0.0215,-0.0150, 0.0308,-0.0107, 0.0021,-0.0144,-2.2330,41.662512,-91.538007, 0.0000, 88.9334, 201.355225, 5.0, 4.0,Automotive,Low, 98.6447,-10.8811, 16.8672, 19.7080,-278.9608, 0.0000, 0.0000, 0.0000
24-May-2019 18:08:46.080, 0.0081, 0.0131,-1.0162, 0.0117,-0.0006,-0.0188,-0.0171, 0.0308,-0.0107, 0.0024,-0.0144,-2.2330,41.662512,-91.538007, 0.0000, 88.9334, 201.355225, 5.0, 4.0,Automotive,High, 98.6447,-10.8811, 16.8672, 19.3529,-279.6358, 0.0000, 0.0000, 0.0000
24-May-2019 18:08:46.117, 0.0057, 0.0147,-1.0161, 0.0098,-0.0009,-0.0194,-0.0150, 0.0286,-0.0107, 0.0024,-0.0143,-2.2330,41.662512,-91.538007, 0.0000, 88.9334, 201.355225, 5.0, 4.0,Automotive,High, 98.6447,-10.8811, 16.6897, 19.8856,-279.1295, 0.0000, 0.0000, 0.0000
24-May-2019 18:08:46.156, 0.0060, 0.0160,-1.0144, 0.0033, 0.0023,-0.0171,-0.0128, 0.0276,-0.0107, 0.0024,-0.0144,-2.2330,41.662512,-91.538007, 0.0000, 88.9334, 201.229202, 5.0, 4.0,Automotive,High, 98.6447,-10.8811, 17.2223, 19.7080,-278.6232, 0.0000, 0.0000, 0.0000
24-May-2019 18:08:46.194, 0.0087, 0.0147,-1.0149, 0.0023, 0.0014,-0.0166,-0.0150, 0.0308,-0.0107, 0.0021,-0.0144,-2.2330,41.662512,-91.538007, 0.0000, 88.9334, 201.229202, 5.0, 4.0,Automotive,High, 98.6447,-10.8811, 16.1570, 19.7080,-278.6232, 0.0000, 0.0000, 0.0000
24-May-2019 18:08:46.233, 0.0075, 0.0174,-1.0115, 0.0051,-0.0001,-0.0151,-0.0150, 0.0308,-0.0107, 0.0020,-0.0145,-2.2330,41.662512,-91.538007, 0.0000, 88.9334, 201.229202, 5.0, 4.0,Automotive,High, 98.6447,-10.8811, 17.9325, 20.0631,-279.6358, 0.0000, 0.0000, 0.0000
24-May-2019 18:08:46.272, 0.0100, 0.0157,-1.0157,-0.0101, 0.0006,-0.0112,-0.0160, 0.0286,-0.0107, 0.0018,-0.0146,-2.2330,41.662512,-91.538007, 0.0000, 88.9334, 201.229202, 5.0, 4.0,Automotive,High, 98.6447,-10.8811, 16.6897, 19.5305,-279.1295, 0.0000, 0.0000, 0.0000
24-May-2019 18:08:46.312, 0.0131, 0.0159,-1.0196, 0.0037, 0.0008,-0.0158,-0.0139, 0.0318,-0.0096, 0.0021,-0.0146,-2.2330,41.662512,-91.538007, 0.0000, 88.9334, 201.229202, 5.0, 4.0,Automotive,High, 98.6447,-10.8811, 17.3999, 20.9509,-279.8046, 0.0000, 0.0000, 0.0000
24-May-2019 18:08:46.354, 0.0129, 0.0152,-1.0194, 0.0020, 0.0027,-0.0135,-0.0139, 0.0308,-0.0096, 0.0022,-0.0147,-2.2330,41.662512,-91.538007, 0.0000, 88.9334, 201.229202, 5.0, 4.0,Automotive,High, 98.6447,-10.8811, 16.8672, 19.7080,-278.6232, 0.0000, 0.0000, 0.0000
24-May-2019 18:08:46.389, 0.0092, 0.0164,-1.0190,-0.0055,-0.0003,-0.0106,-0.0139, 0.0308,-0.0096, 0.0021,-0.0146,-2.2330,41.662512,-91.538007, 0.0000, 88.9334, 201.229202, 5.0, 4.0,Automotive,High, 98.6447,-10.8811, 15.8019, 19.7080,-278.6232, 0.0000, 0.0000, 0.0000
24-May-2019 18:08:46.430, 0.0114, 0.0139,-1.0186, 0.0000, 0.0013,-0.0131,-0.0160, 0.0308,-0.0096, 0.0023,-0.0146,-2.2330,41.662512,-91.538007, 0.0000, 88.9334, 201.229202, 5.0, 4.0,Automotive,High, 98.6447,-10.8811, 17.7550, 19.5305,-279.8046, 0.0000, 0.0000, 0.0000
24-May-2019 18:08:46.468, 0.0113, 0.0140,-1.0164,-0.0051,-0.0011,-0.0126,-0.0160, 0.0308,-0.0096, 0.0021,-0.0146,-2.2330,41.662512,-91.538007, 0.0000, 88.9334, 201.229202, 5.0, 4.0,Automotive,High, 98.6447,-10.8811, 17.0448, 20.2407,-279.8046, 0.0000, 0.0000, 0.0000
24-May-2019 18:08:46.505, 0.0093, 0.0143,-1.0156,-0.0053,-0.0011,-0.0109,-0.0150, 0.0286,-0.0096, 0.0020,-0.0145,-2.2330,41.662512,-91.538007, 0.0000, 88.9334, 201.229202, 5.0, 4.0,Automotive,High, 98.6447,-10.8811, 16.5121, 20.7733,-280.3109, 0.0000, 0.0000, 0.0000
24-May-2019 18:08:46.543, 0.0068, 0.0138,-1.0152,-0.0087,-0.0000,-0.0143,-0.0128, 0.0297,-0.0107, 0.0021,-0.0145,-2.2330,41.662512,-91.538007, 0.0000, 88.9334, 201.229202, 5.0, 4.0,Automotive,High, 98.6447,-10.8811, 16.8672, 18.9978,-279.6358, 0.0000, 0.0000, 0.0000
24-May-2019 18:08:46.588, 0.0043, 0.0165,-1.0144,-0.0103, 0.0005,-0.0129,-0.0160, 0.0308,-0.0107, 0.0018,-0.0145,-2.2330,41.662512,-91.538007, 0.0000, 88.9334, 201.229202, 5.0, 4.0,Automotive,High, 98.6447,-10.8811, 15.9795, 19.1754,-279.4670, 0.0000, 0.0000, 0.0000
24-May-2019 18:08:46.622, 0.0022, 0.0173,-1.0163,-0.0097, 0.0001,-0.0136,-0.0160, 0.0297,-0.0107, 0.0015,-0.0146,-2.2330,41.662512,-91.538007, 0.0000, 88.9334, 201.229202, 5.0, 4.0,Automotive,High, 98.6447,-10.8811, 16.8672, 19.7080,-278.6232, 0.0000, 0.0000, 0.0000
24-May-2019 18:08:46.659, 0.0036, 0.0156,-1.0154,-0.0026, 0.0025,-0.0154,-0.0150, 0.0297,-0.0107, 0.0016,-0.0146,-2.2330,41.662512,-91.538007, 0.0000, 88.9334, 201.229202, 5.0, 4.0,Automotive,High, 98.6447,-10.8811, 17.5774, 20.0631,-278.2857, 0.0000, 0.0000, 0.0000
24-May-2019 18:08:46.701, 0.0038, 0.0165,-1.0118,-0.0101, 0.0001,-0.0103,-0.0150, 0.0329,-0.0107, 0.0017,-0.0147,-2.2330,41.662512,-91.538007, 0.0000, 88.9334, 201.229202, 5.0, 4.0,Automotive,High, 98.6447,-10.8811, 17.5774, 20.0631,-278.2857, 0.0000, 0.0000, 0.0000
24-May-2019 18:08:46.743, 0.0025, 0.0157,-1.0117,-0.0072,-0.0003,-0.0125,-0.0160, 0.0318,-0.0096, 0.0021,-0.0148,-2.2330,41.662512,-91.538007, 0.0000, 88.9334, 201.229202, 5.0, 4.0,Automotive,High, 98.6447,-10.8811, 16.3346, 19.1754,-279.1295, 0.0000, 0.0000, 0.0000
24-May-2019 18:08:46.778,-0.0007, 0.0134,-1.0109,-0.0062,-0.0027,-0.0102,-0.0139, 0.0308,-0.0118, 0.0022,-0.0148,-2.2330,41.662512,-91.538007, 0.0000, 88.9334, 201.229202, 5.0, 4.0,Automotive,High, 98.6447,-10.8811, 18.2876, 20.0631,-279.6358, 0.0000, 0.0000, 0.0000
24-May-2019 18:08:46.816,-0.0012, 0.0130,-1.0134,-0.0056,-0.0014,-0.0124,-0.0150, 0.0297,-0.0107, 0.0024,-0.0146,-2.2330,41.662512,-91.538007, 0.0000, 88.9334, 201.229202, 5.0, 4.0,Automotive,High, 98.6447,-10.8811, 18.1101, 19.8856,-279.1295, 0.0000, 0.0000, 0.0000
24-May-2019 18:08:46.859,-0.0038, 0.0129,-1.0149,-0.0061,-0.0016,-0.0150,-0.0160, 0.0276,-0.0096, 0.0023,-0.0145,-2.2330,41.662512,-91.538007, 0.0000, 88.9334, 201.229202, 5.0, 4.0,Automotive,High, 98.6447,-10.8811, 16.8672, 19.3529,-278.9608, 0.0000, 0.0000, 0.0000
24-May-2019 18:08:46.893,-0.0072, 0.0145,-1.0127,-0.0047,-0.0015,-0.0142,-0.0139, 0.0276,-0.0107, 0.0023,-0.0144,-2.2330,41.662512,-91.538007, 0.0000, 88.9334, 201.229202, 5.0, 4.0,Automotive,High, 98.6447,-10.8811, 16.6897, 20.9509,-279.4670, 0.0000, 0.0000, 0.0000
24-May-2019 18:08:46.936,-0.0070, 0.0127,-1.0123,-0.0054, 0.0005,-0.0144,-0.0160, 0.0297,-0.0107, 0.0025,-0.0145,-2.2330,41.662512,-91.538007, 0.0000, 88.9334, 201.229202, 5.0, 4.0,Automotive,High, 98.6447,-10.8811, 16.1570, 20.4182,-279.9733, 0.0000, 0.0000, 0.0000
24-May-2019 18:08:46.972,-0.0072, 0.0157,-1.0125,-0.0049, 0.0021,-0.0114,-0.0160, 0.0318,-0.0107, 0.0023,-0.0145,-2.2331,41.662512,-91.538007, 0.0000, 88.9334, 201.229202, 5.0, 4.0,Automotive,High, 98.6447,-10.8811, 16.3346, 19.8856,-278.4545, 0.0000, 0.0000, 0.0000
24-May-2019 18:08:47.011,-0.0085, 0.0172,-1.0097,-0.0047,-0.0002,-0.0148,-0.0150, 0.0286,-0.0107, 0.0022,-0.0146,-2.2331,41.662512,-91.538007, 0.0000, 88.9334, 201.229202, 5.0, 4.0,Automotive,High, 98.6447,-10.8811, 16.6897, 19.1754,-279.4670, 0.0000, 0.0000, 0.0000
24-May-2019 18:08:47.050,-0.0069, 0.0162,-1.0109, 0.0086, 0.0023,-0.0199,-0.0150, 0.0297,-0.0107, 0.0021,-0.0147,-2.2331,41.662512,-91.538007, 0.0000, 88.9334, 201.229202, 5.0, 4.0,Automotive,High, 98.6448,-10.8837, 17.5774, 19.3529,-277.2732, 0.0000, 0.0000, 0.0000
24-May-2019 18:08:47.093,-0.0072, 0.0125,-1.0153, 0.0052, 0.0010,-0.0149,-0.0171, 0.0318,-0.0086, 0.0022,-0.0147,-2.2331,41.662512,-91.538007, 0.0000, 88.9334, 201.229202, 5.0, 4.0,Automotive,High, 98.6448,-10.8837, 17.3999, 19.5305,-278.7920, 0.0000, 0.0000, 0.0000
24-May-2019 18:08:47.130,-0.0069, 0.0111,-1.0144, 0.0010, 0.0008,-0.0184,-0.0150, 0.0308,-0.0107, 0.0024,-0.0147,-2.2331,41.662512,-91.538007, 0.0000, 88.9334, 201.229202, 5.0, 4.0,Automotive,High, 98.6448,-10.8837, 17.3999, 20.9509,-278.7920, 0.0000, 0.0000, 0.0000
24-May-2019 18:08:47.166,-0.0046, 0.0126,-1.0138, 0.0070, 0.0007,-0.0191,-0.0150, 0.0297,-0.0118, 0.0024,-0.0145,-2.2331,41.662512,-91.538007, 0.0000, 88.9334, 201.229202, 5.0, 4.0,Automotive,High, 98.6448,-10.8837, 15.9795, 18.4652,-279.1295, 0.0000, 0.0000, 0.0000
24-May-2019 18:08:47.205,-0.0046, 0.0126,-1.0128, 0.0084,-0.0008,-0.0170,-0.0150, 0.0308,-0.0107, 0.0024,-0.0144,-2.2331,41.662512,-91.538007, 0.0000, 88.9334, 201.172302, 5.0, 4.0,Automotive,High, 98.6448,-10.8837, 16.6897, 20.2407,-279.8046, 0.0000, 0.0000, 0.0000
24-May-2019 18:08:47.243,-0.0035, 0.0139,-1.0118, 0.0092, 0.0011,-0.0166,-0.0150, 0.0297,-0.0107, 0.0023,-0.0144,-2.2331,41.662512,-91.538007, 0.0000, 88.9334, 201.172302, 5.0, 4.0,Automotive,High, 98.6448,-10.8837, 18.2876, 20.4182,-278.9608, 0.0000, 0.0000, 0.0000
24-May-2019 18:08:47.282, 0.0011, 0.0162,-1.0119, 0.0108, 0.0010,-0.0176,-0.0139, 0.0308,-0.0107, 0.0023,-0.0145,-2.2331,41.662512,-91.538007, 0.0000, 88.9334, 201.172302, 5.0, 4.0,Automotive,High, 98.6448,-10.8837, 18.2876, 18.9978,-277.9482, 0.0000, 0.0000, 0.0000
24-May-2019 18:08:47.321,-0.0006, 0.0176,-1.0127, 0.0005, 0.0005,-0.0142,-0.0150, 0.0286,-0.0107, 0.0021,-0.0145,-2.2331,41.662512,-91.538007, 0.0000, 88.9334, 201.172302, 5.0, 4.0,Automotive,High, 98.6448,-10.8837, 17.0448, 19.1754,-278.7920, 0.0000, 0.0000, 0.0000
24-May-2019 18:08:47.365, 0.0005, 0.0174,-1.0185, 0.0102, 0.0021,-0.0170,-0.0139, 0.0308,-0.0107, 0.0022,-0.0146,-2.2331,41.662512,-91.538007, 0.0000, 88.9334, 201.172302, 5.0, 4.0,Automotive,High, 98.6448,-10.8837, 17.0448, 19.5305,-278.4545, 0.0000, 0.0000, 0.0000
24-May-2019 18:08:47.401, 0.0041, 0.0155,-1.0165, 0.0079, 0.0013,-0.0179,-0.0160, 0.0297,-0.0118, 0.0022,-0.0147,-2.2331,41.662512,-91.538007, 0.0000, 88.9334, 201.172302, 5.0, 4.0,Automotive,High, 98.6448,-10.8837, 16.6897, 19.8856,-280.1421, 0.0000, 0.0000, 0.0000
24-May-2019 18:08:47.438, 0.0076, 0.0154,-1.0155, 0.0072, 0.0004,-0.0174,-0.0150, 0.0286,-0.0096, 0.0020,-0.0147,-2.2331,41.662512,-91.538007, 0.0000, 88.9334, 201.172302, 5.0, 4.0,Automotive,High, 98.6448,-10.8837, 17.0448, 20.2407,-279.8046, 0.0000, 0.0000, 0.0000
24-May-2019 18:08:47.476, 0.0077, 0.0149,-1.0153, 0.0054,-0.0022,-0.0132,-0.0150, 0.0308,-0.0107, 0.0018,-0.0145,-2.2331,41.662512,-91.538007, 0.0000, 88.9334, 201.172302, 5.0, 4.0,Automotive,High, 98.6448,-10.8837, 18.6427, 19.3529,-279.9733, 0.0000, 0.0000, 0.0000
24-May-2019 18:08:47.516, 0.0090, 0.0159,-1.0159, 0.0050, 0.0001,-0.0131,-0.0139, 0.0286,-0.0096, 0.0019,-0.0145,-2.2331,41.662512,-91.538007, 0.0000, 88.9334, 201.172302, 5.0, 4.0,Automotive,High, 98.6448,-10.8837, 16.8672, 19.7080,-278.9608, 0.0000, 0.0000, 0.0000
24-May-2019 18:08:47.553, 0.0094, 0.0158,-1.0146, 0.0047,-0.0009,-0.0109,-0.0160, 0.0308,-0.0086, 0.0022,-0.0145,-2.2331,41.662512,-91.538007, 0.0000, 88.9334, 201.172302, 5.0, 4.0,Automotive,High, 98.6448,-10.8837, 16.6897, 19.1754,-278.1170, 0.0000, 0.0000, 0.0000
24-May-2019 18:08:47.596, 0.0121, 0.0141,-1.0172, 0.0045, 0.0008,-0.0129,-0.0139, 0.0276,-0.0118, 0.0018,-0.0145,-2.2332,41.662512,-91.538007, 0.0000, 88.9334, 201.172302, 5.0, 4.0,Automotive,High, 98.6448,-10.8837, 17.2223, 19.3529,-279.2983, 0.0000, 0.0000, 0.0000
24-May-2019 18:08:47.636, 0.0106, 0.0130,-1.0208, 0.0003, 0.0014,-0.0094,-0.0139, 0.0297,-0.0107, 0.0018,-0.0146,-2.2332,41.662512,-91.538007, 0.0000, 88.9334, 201.172302, 5.0, 4.0,Automotive,High, 98.6448,-10.8837, 15.8019, 18.6427,-280.9859, 0.0000, 0.0000, 0.0000
24-May-2019 18:08:47.679, 0.0126, 0.0143,-1.0170,-0.0024,-0.0010,-0.0161,-0.0150, 0.0308,-0.0096, 0.0015,-0.0146,-2.2332,41.662512,-91.538007, 0.0000, 88.9334, 201.172302, 5.0, 4.0,Automotive,High, 98.6448,-10.8837, 16.8672, 20.7733,-278.6232, 0.0000, 0.0000, 0.0000
24-May-2019 18:08:47.707, 0.0137, 0.0156,-1.0156,-0.0098,-0.0002,-0.0173,-0.0150, 0.0308,-0.0096, 0.0016,-0.0146,-2.2332,41.662512,-91.538007, 0.0000, 88.9334, 201.172302, 5.0, 4.0,Automotive,High, 98.6448,-10.8837, 16.8672, 20.7733,-278.6232, 0.0000, 0.0000, 0.0000
24-May-2019 18:08:47.746, 0.0110, 0.0159,-1.0169, 0.0002, 0.0004,-0.0131,-0.0128, 0.0286,-0.0107, 0.0019,-0.0147,-2.2332,41.662512,-91.538007, 0.0000, 88.9334, 201.172302, 5.0, 4.0,Automotive,High, 98.6448,-10.8837, 16.3346, 19.1754,-280.1421, 0.0000, 0.0000, 0.0000
24-May-2019 18:08:47.785, 0.0085, 0.0142,-1.0157,-0.0078,-0.0012,-0.0106,-0.0128, 0.0286,-0.0107, 0.0018,-0.0147,-2.2332,41.662512,-91.538007, 0.0000, 88.9334, 201.172302, 5.0, 4.0,Automotive,High, 98.6448,-10.8837, 17.0448, 19.8856,-279.4670, 0.0000, 0.0000, 0.0000
24-May-2019 18:08:47.833, 0.0084, 0.0143,-1.0168,-0.0059, 0.0014,-0.0110,-0.0150, 0.0297,-0.0118, 0.0016,-0.0146,-2.2332,41.662512,-91.538007, 0.0000, 88.9334, 201.172302, 5.0, 4.0,Automotive,High, 98.6448,-10.8837, 17.5774, 19.7080,-278.6232, 0.0000, 0.0000, 0.0000
24-May-2019 18:08:47.864, 0.0057, 0.0142,-1.0117,-0.0054,-0.0024,-0.0123,-0.0150, 0.0297,-0.0096, 0.0013,-0.0145,-2.2332,41.662512,-91.538007, 0.0000, 88.9334, 201.172302, 5.0, 4.0,Automotive,High, 98.6448,-10.8837, 15.2693, 19.8856,-278.1170, 0.0000, 0.0000, 0.0000
24-May-2019 18:08:47.901, 0.0031, 0.0141,-1.0145,-0.0064,-0.0019,-0.0127,-0.0160, 0.0308,-0.0107, 0.0015,-0.0145,-2.2332,41.662512,-91.538007, 0.0000, 88.9334, 201.172302, 5.0, 4.0,Automotive,High, 98.6448,-10.8837, 16.3346, 18.8203,-279.1295, 0.0000, 0.0000, 0.0000
24-May-2019 18:08:47.952, 0.0063, 0.0143,-1.0143,-0.0091,-0.0011,-0.0146,-0.0171, 0.0297,-0.0107, 0.0014,-0.0145,-2.2332,41.662512,-91.538007, 0.0000, 88.9334, 201.172302, 5.0, 4.0,Automotive,High, 98.6448,-10.8837, 17.5774, 19.7080,-278.9608, 0.0000, 0.0000, 0.0000
24-May-2019 18:08:47.979, 0.0023, 0.0169,-1.0108,-0.0019,-0.0014,-0.0172,-0.0160, 0.0297,-0.0086, 0.0017,-0.0145,-2.2332,41.662512,-91.538007, 0.0000, 88.9334, 201.172302, 5.0, 4.0,Automotive,High, 98.6448,-10.8837, 15.8019, 17.9325,-279.6358, 0.0000, 0.0000, 0.0000
24-May-2019 18:08:48.018,-0.0020, 0.0164,-1.0134,-0.0091,-0.0014,-0.0106,-0.0139, 0.0286,-0.0107, 0.0017,-0.0145,-2.2331,41.662512,-91.538007, 0.0000, 88.9334, 201.172302, 5.0, 4.0,Automotive,High, 98.6448,-10.8837, 15.9795, 19.1754,-280.1421, 0.0000, 0.0000, 0.0000
24-May-2019 18:08:48.060,-0.0003, 0.0174,-1.0157,-0.0104,-0.0005,-0.0105,-0.0150, 0.0297,-0.0096, 0.0018,-0.0146,-2.2332,41.662512,-91.538007, 0.0000, 88.9334, 201.172302, 5.0, 4.0,Automotive,High, 98.6450,-10.9075, 16.6897, 18.4652,-277.1044, 0.0000, 0.0000, 0.0000
24-May-2019 18:08:48.102,-0.0031, 0.0144,-1.0117,-0.0120,-0.0004,-0.0116,-0.0150, 0.0276,-0.0107, 0.0018,-0.0147,-2.2331,41.662512,-91.538007, 0.0000, 88.9334, 201.172302, 5.0, 4.0,Automotive,High, 98.6450,-10.9075, 16.6897, 20.5958,-277.7794, 0.0000, 0.0000, 0.0000
24-May-2019 18:08:48.136,-0.0032, 0.0136,-1.0124,-0.0076, 0.0006,-0.0111,-0.0139, 0.0297,-0.0096, 0.0020,-0.0148,-2.2331,41.662512,-91.538007, 0.0000, 88.9334, 201.127350, 5.0, 4.0,Automotive,High, 98.6450,-10.9075, 16.8672, 18.6427,-278.2857, 0.0000, 0.0000, 0.0000
24-May-2019 18:08:48.180,-0.0051, 0.0133,-1.0122,-0.0083,-0.0017,-0.0142,-0.0160, 0.0297,-0.0118, 0.0019,-0.0147,-2.2331,41.662512,-91.538007, 0.0000, 88.9334, 201.127350, 5.0, 4.0,Automotive,High, 98.6450,-10.9075, 18.4652, 18.4652,-279.1295, 0.0000, 0.0000, 0.0000
24-May-2019 18:08:48.211,-0.0062, 0.0124,-1.0126,-0.0052,-0.0024,-0.0118,-0.0160, 0.0276,-0.0107, 0.0019,-0.0146,-2.2332,41.662512,-91.538007, 0.0000, 88.9334, 201.127350, 5.0, 4.0,Automotive,High, 98.6450,-10.9075, 17.3999, 20.2407,-279.4670, 0.0000, 0.0000, 0.0000
24-May-2019 18:08:48.250,-0.0088, 0.0158,-1.0118, 0.0092,-0.0015,-0.0188,-0.0139, 0.0297,-0.0118, 0.0022,-0.0145,-2.2332,41.662512,-91.538007, 0.0000, 88.9334, 201.127350, 5.0, 4.0,Automotive,High, 98.6450,-10.9075, 17.5774, 19.3529,-277.9482, 0.0000, 0.0000, 0.0000
24-May-2019 18:08:48.289,-0.0100, 0.0145,-1.0117,-0.0014, 0.0013,-0.0154,-0.0182, 0.0297,-0.0096, 0.0018,-0.0146,-2.2332,41.662512,-91.538007, 0.0000, 88.9334, 201.127350, 5.0, 4.0,Automotive,High, 98.6450,-10.9075, 16.1570, 20.7733,-278.9608, 0.0000, 0.0000, 0.0000
24-May-2019 18:08:48.330,-0.0083, 0.0130,-1.0129, 0.0010, 0.0023,-0.0165,-0.0160, 0.0308,-0.0128, 0.0019,-0.0147,-2.2332,41.662512,-91.538007, 0.0000, 88.9334, 201.127350, 5.0, 4.0,Automotive,High, 98.6450,-10.9075, 17.5774, 19.7080,-278.2857, 0.0000, 0.0000, 0.0000
24-May-2019 18:08:48.366,-0.0079, 0.0120,-1.0125, 0.0053, 0.0047,-0.0163,-0.0139, 0.0297,-0.0107, 0.0020,-0.0147,-2.2332,41.662512,-91.538007, 0.0000, 88.9334, 201.127350, 5.0, 4.0,Automotive,High, 98.6450,-10.9075, 16.5121, 18.9978,-279.2983, 0.0000, 0.0000, 0.0000
24-May-2019 18:08:48.406,-0.0082, 0.0138,-1.0115, 0.0081, 0.0011,-0.0142,-0.0128, 0.0308,-0.0118, 0.0019,-0.0147,-2.2332,41.662512,-91.538007, 0.0000, 88.9334, 201.127350, 5.0, 4.0,Automotive,High, 98.6450,-10.9075, 16.8672, 19.7080,-279.9733, 0.0000, 0.0000, 0.0000
24-May-2019 18:08:48.443,-0.0069, 0.0134,-1.0134, 0.0086,-0.0028,-0.0164,-0.0139, 0.0297,-0.0118, 0.0018,-0.0147,-2.2332,41.662512,-91.538007, 0.0000, 88.9334, 201.127350, 5.0, 4.0,Automotive,High, 98.6450,-10.9075, 15.9795, 19.1754,-277.1044, 0.0000, 0.0000, 0.0000
24-May-2019 18:08:48.484,-0.0030, 0.0147,-1.0113, 0.0073, 0.0012,-0.0172,-0.0150, 0.0297,-0.0118, 0.0019,-0.0147,-2.2332,41.662512,-91.538007, 0.0000, 88.9334, 201.127350, 5.0, 4.0,Automotive,High, 98.6450,-10.9075, 16.6897, 20.2407,-279.1295, 0.0000, 0.0000, 0.0000
24-May-2019 18:08:48.524,-0.0033, 0.0146,-1.0131, 0.0053,-0.0006,-0.0152,-0.0160, 0.0297,-0.0107, 0.0018,-0.0146,-2.2332,41.662512,-91.538007, 0.0000, 88.9334, 201.127350, 5.0, 4.0,Automotive,High, 98.6450,-10.9075, 17.5774, 18.6427,-279.2983, 0.0000, 0.0000, 0.0000
24-May-2019 18:08:48.560,-0.0023, 0.0143,-1.0150, 0.0090,-0.0014,-0.0163,-0.0150, 0.0286,-0.0107, 0.0016,-0.0145,-2.2332,41.662512,-91.538007, 0.0000, 88.9334, 201.127350, 5.0, 4.0,Automotive,High, 98.6450,-10.9075, 17.2223, 19.3529,-278.9608, 0.0000, 0.0000, 0.0000
24-May-2019 18:08:48.609, 0.0036, 0.0154,-1.0169, 0.0075, 0.0012,-0.0159,-0.0150, 0.0286,-0.0118, 0.0017,-0.0145,-2.2332,41.662512,-91.538007, 0.0000, 88.9334, 201.127350, 5.0, 4.0,Automotive,High, 98.6450,-10.9075, 17.0448, 20.2407,-279.4670, 0.0000, 0.0000, 0.0000
24-May-2019 18:08:48.637, 0.0055, 0.0161,-1.0149, 0.0089,-0.0010,-0.0178,-0.0160, 0.0286,-0.0096, 0.0016,-0.0145,-2.2332,41.662512,-91.538007, 0.0000, 88.9334, 201.127350, 5.0, 4.0,Automotive,High, 98.6450,-10.9075, 16.6897, 19.8856,-278.1170, 0.0000, 0.0000, 0.0000
24-May-2019 18:08:48.676, 0.0051, 0.0188,-1.0151, 0.0115,-0.0001,-0.0140,-0.0150, 0.0297,-0.0118, 0.0018,-0.0145,-2.2332,41.662512,-91.538007, 0.0000, 88.9334, 201.127350, 5.0, 4.0,Automotive,High, 98.6450,-10.9075, 17.0448, 19.1754,-279.1295, 0.0000, 0.0000, 0.0000
24-May-2019 18:08:48.715, 0.0082, 0.0171,-1.0196,-0.0019,-0.0000,-0.0138,-0.0139, 0.0297,-0.0096, 0.0016,-0.0146,-2.2333,41.662512,-91.538007, 0.0000, 88.9334, 201.127350, 5.0, 4.0,Automotive,High, 98.6450,-10.9075, 17.0448, 19.1754,-279.1295, 0.0000, 0.0000, 0.0000
24-May-2019 18:08:48.753, 0.0076, 0.0137,-1.0163, 0.0068,-0.0010,-0.0133,-0.0139, 0.0297,-0.0096, 0.0020,-0.0146,-2.2332,41.662512,-91.538007, 0.0000, 88.9334, 201.127350, 5.0, 4.0,Automotive,High, 98.6450,-10.9075, 16.3346, 19.1754,-279.1295, 0.0000, 0.0000, 0.0000
24-May-2019 18:08:48.796, 0.0082, 0.0200,-1.0015, 0.0093,-0.0061,-0.0225,-0.0160, 0.0297,-0.0107, 0.0017,-0.0144,-2.2332,41.662512,-91.538007, 0.0000, 88.9334, 201.127350, 5.0, 4.0,Automotive,High, 98.6450,-10.9075, 17.3999, 19.8856,-278.7920, 0.0000, 0.0000, 0.0000
24-May-2019 18:08:48.830, 0.0112, 0.0135,-1.0119, 0.0071,-0.0110,-0.0236,-0.0128, 0.0265,-0.0107, 0.0017,-0.0138,-2.2332,41.662512,-91.538007, 0.0000, 88.9334, 201.127350, 5.0, 4.0,Automotive,High, 98.6450,-10.9075, 16.5121, 19.3529,-278.6232, 0.0000, 0.0000, 0.0000
24-May-2019 18:08:48.869, 0.0130, 0.0087,-1.0158, 0.0007,-0.0051,-0.0135,-0.0128, 0.0265,-0.0107, 0.0017,-0.0135,-2.2332,41.662512,-91.538007, 0.0000, 88.9334, 201.127350, 5.0, 4.0,Automotive,High, 98.6450,-10.9075, 16.1570, 20.4182,-278.9608, 0.0000, 0.0000, 0.0000
24-May-2019 18:08:48.908, 0.0113, 0.0059,-1.0170, 0.0046,-0.0020,-0.0124,-0.0171, 0.0254,-0.0086, 0.0020,-0.0132,-2.2332,41.662512,-91.538007, 0.0000, 88.9334, 201.127350, 5.0, 4.0,Automotive,High, 98.6450,-10.9075, 17.0448, 19.5305,-277.7794, 0.0000, 0.0000, 0.0000
24-May-2019 18:08:48.947, 0.0060, 0.0022,-1.0146, 0.0016,-0.0050,-0.0087,-0.0128, 0.0297,-0.0107, 0.0018,-0.0127,-2.2331,41.662512,-91.538007, 0.0000, 88.9334, 201.127350, 5.0, 4.0,Automotive,High, 98.6450,-10.9075, 16.8672, 19.7080,-279.2983, 0.0000, 0.0000, 0.0000
24-May-2019 18:08:48.978, 0.0060, 0.0013,-1.0203,-0.0021,-0.0078,-0.0123,-0.0128, 0.0297,-0.0107, 0.0016,-0.0123,-2.2331,41.662512,-91.538007, 0.0000, 88.9334, 201.127350, 5.0, 4.0,Automotive,High, 98.6450,-10.9075, 16.5121, 20.0631,-278.6232, 0.0000, 0.0000, 0.0000
24-May-2019 18:08:49.020, 0.0062,-0.0039,-1.0167,-0.0055,-0.0190,-0.0149,-0.0139, 0.0286,-0.0086, 0.0014,-0.0106,-2.2331,41.662512,-91.538007, 0.0000, 88.9334, 201.127350, 5.0, 4.0,Automotive,High, 98.6450,-10.9075, 17.5774, 18.9978,-279.9733, 0.0000, 0.0000, 0.0000
24-May-2019 18:08:49.056,-0.0030,-0.0088,-1.0147,-0.0091,-0.0223,-0.0193,-0.0139, 0.0329,-0.0118, 0.0016,-0.0093,-2.2331,41.662512,-91.538007, 0.0000, 88.9334, 201.127350, 5.0, 4.0,Automotive,High, 98.6450,-10.9075, 17.0448, 20.5958,-279.1295, 0.0000, 0.0000, 0.0000
24-May-2019 18:08:49.096,-0.0078,-0.0126,-1.0143,-0.0069,-0.0209,-0.0136,-0.0139, 0.0329,-0.0107, 0.0015,-0.0078,-2.2331,41.662512,-91.538007, 0.0000, 88.9334, 201.127350, 5.0, 4.0,Automotive,High, 98.6452,-10.9233, 16.8672, 20.4182,-277.9482, 0.0000, 0.0000, 0.0000
24-May-2019 18:08:49.137,-0.0046,-0.0164,-1.0157, 0.0035,-0.0188,-0.0111,-0.0139, 0.0297,-0.0118, 0.0015,-0.0063,-2.2331,41.662512,-91.538007, 0.0000, 88.9334, 201.127350, 5.0, 4.0,Automotive,High, 98.6452,-10.9233, 17.7550, 18.8203,-278.7920, 0.0000, 0.0000, 0.0000
24-May-2019 18:08:49.172, 0.0007,-0.0108,-1.0073, 0.0082,-0.0277,-0.0137,-0.0171, 0.0318,-0.0096, 0.0014,-0.0047,-2.2331,41.662512,-91.538007, 0.0000, 88.9334, 201.127350, 5.0, 4.0,Automotive,High, 98.6452,-10.9233, 15.0917, 19.7080,-280.6484, 0.0000, 0.0000, 0.0000
24-May-2019 18:08:49.214, 0.0048,-0.0211,-1.0151, 0.0097,-0.0220,-0.0094,-0.0096, 0.0286,-0.0118, 0.0015,-0.0032,-2.2331,41.662512,-91.538007, 0.0000, 88.9334, 201.114609, 5.0, 4.0,Automotive,High, 98.6452,-10.9233, 17.7550, 19.5305,-278.1170, 0.0000, 0.0000, 0.0000
24-May-2019 18:08:49.258, 0.0083,-0.0215,-1.0164,-0.0009,-0.0226,-0.0164,-0.0171, 0.0276,-0.0096, 0.0011,-0.0016,-2.2331,41.662512,-91.538007, 0.0000, 88.9334, 201.114609, 5.0, 4.0,Automotive,High, 98.6452,-10.9233, 16.3346, 18.1101,-279.1295, 0.0000, 0.0000, 0.0000
24-May-2019 18:08:49.289, 0.0130,-0.0206,-1.0157,-0.0069,-0.0241,-0.0163,-0.0150, 0.0276,-0.0107, 0.0011, 0.0001,-2.2331,41.662512,-91.538007, 0.0000, 88.9334, 201.114609, 5.0, 4.0,Automotive,High, 98.6452,-10.9233, 14.9142, 19.1754,-278.4545, 0.0000, 0.0000, 0.0000
24-May-2019 18:08:49.327, 0.0116,-0.0236,-1.0153,-0.0048,-0.0145,-0.0159,-0.0139, 0.0276,-0.0128, 0.0010, 0.0018,-2.2331,41.662512,-91.538007, 0.0000, 88.9334, 201.114609, 5.0, 4.0,Automotive,High, 98.6452,-10.9233, 16.3346, 20.2407,-279.1295, 0.0000, 0.0000, 0.0000
24-May-2019 18:08:49.365, 0.0127,-0.0218,-1.0137,-0.0095,-0.0179,-0.0137,-0.0160, 0.0297,-0.0096, 0.0008, 0.0035,-2.2331,41.662512,-91.538007, 0.0000, 88.9334, 201.114609, 5.0, 4.0,Automotive,High, 98.6452,-10.9233, 17.5774, 20.7733,-279.9733, 0.0000, 0.0000, 0.0000
24-May-2019 18:08:49.404, 0.0057,-0.0278,-1.0136,-0.0083,-0.0157,-0.0139,-0.0128, 0.0244,-0.0118, 0.0009, 0.0043,-2.2331,41.662512,-91.538007, 0.0000, 88.9334, 201.114609, 5.0, 4.0,Automotive,High, 98.6452,-10.9233, 16.1570, 20.0631,-278.2857, 0.0000, 0.0000, 0.0000
24-May-2019 18:08:49.451, 0.0018,-0.0268,-1.0117,-0.0124,-0.0162,-0.0125,-0.0139, 0.0265,-0.0107, 0.0004, 0.0059,-2.2332,41.662512,-91.538007, 0.0000, 88.9334, 201.114609, 5.0, 4.0,Automotive,High, 98.6452,-10.9233, 15.6244, 19.1754,-278.4545, 0.0000, 0.0000, 0.0000
24-May-2019 18:08:49.489,-0.0039,-0.0315,-1.0111,-0.0134,-0.0242,-0.0164,-0.0139, 0.0286,-0.0128, 0.0005, 0.0074,-2.2332,41.662512,-91.538007, 0.0000, 88.9334, 201.114609, 5.0, 4.0,Automotive,High, 98.6452,-10.9233, 16.1570, 20.4182,-280.6484, 0.0000, 0.0000, 0.0000
24-May-2019 18:08:49.520,-0.0100,-0.0414,-1.0112,-0.0130,-0.0279,-0.0151,-0.0139, 0.0265,-0.0107, 0.0008, 0.0091,-2.2332,41.662512,-91.538007, 0.0000, 88.9334, 201.114609, 5.0, 4.0,Automotive,High, 98.6452,-10.9233, 16.1570, 20.4182,-280.6484, 0.0000, 0.0000, 0.0000
24-May-2019 18:08:49.559,-0.0145,-0.0418,-1.0088,-0.0066,-0.0372,-0.0194,-0.0107, 0.0255,-0.0107, 0.0010, 0.0117,-2.2332,41.662512,-91.538007, 0.0000, 88.9334, 201.114609, 5.0, 4.0,Automotive,High, 98.6452,-10.9233, 17.7550, 19.5305,-279.4670, 0.0000, 0.0000, 0.0000
24-May-2019 18:08:49.597,-0.0108,-0.0468,-1.0088, 0.0082,-0.0335,-0.0126,-0.0150, 0.0265,-0.0096, 0.0012, 0.0143,-2.2333,41.662512,-91.538007, 0.0000, 88.9334, 201.114609, 5.0, 4.0,Automotive,High, 98.6452,-10.9233, 16.1570, 20.0631,-279.2983, 0.0000, 0.0000, 0.0000
